{"Postamats": [{"id": 0, "lattitude": 55.69831, "longtitude": 37.379612, "address": "Марфино, Одинцовский городской округ, Московская область, Центральный федеральный округ, 143026, Россия"}, {"id": 1, "lattitude": 55.807715, "longtitude": 37.812755, "address": "38 к2, 13-я Парковая улица, район Северное Измайлово, Москва, Центральный федеральный округ, 105077, Россия"}, {"id": 2, "lattitude": 55.705074, "longtitude": 37.607445, "address": "30 с3, 4-й Рощинский проезд, Даниловский район, Москва, Центральный федеральный округ, 115191, Россия"}, {"id": 3, "lattitude": 55.721793, "longtitude": 37.846254, "address": "Автомобилист, Муромская улица, район Косино-Ухтомский, Москва, Центральный федеральный округ, 111621, Россия"}, {"id": 4, "lattitude": 55.815421, "longtitude": 37.845955, "address": "22, квартал Щитниково, Щитниково, Балашиха, городской округ Балашиха, Московская область, Центральный федеральный округ, 143912, Россия"}, {"id": 5, "lattitude": 55.874413, "longtitude": 37.824529, "address": "Торфопредприятие, Королёв, городской округ Королёв, Московская область, Центральный федеральный округ, 141076, Россия"}, {"id": 6, "lattitude": 55.663002, "longtitude": 37.465545, "address": "Школа № 14. Корпус школьного образования №1, Тропарёвская улица, Тропарёво-Никулино, Москва, Центральный федеральный округ, 119602, Россия"}, {"id": 7, "lattitude": 55.888921, "longtitude": 37.345206, "address": "Тренировочная база футбольного клуба «Динамо-Москва», Соколовская улица, Новогорск, Химки, городской округ Химки, Московская область, Центральный федеральный округ, 141435, Россия"}, {"id": 8, "lattitude": 55.904588, "longtitude": 37.702304, "address": "Школа №27, 42 к2, Юбилейная улица, Тайнинское, Мытищи, городской округ Мытищи, Московская область, Центральный федеральный округ, 141021, Россия"}, {"id": 9, "lattitude": 55.659519, "longtitude": 37.352916, "address": "6, 7-я улица Лазенки, Ново-Переделкино, Москва, Центральный федеральный округ, 119619, Россия"}, {"id": 10, "lattitude": 55.899795, "longtitude": 37.599724, "address": "Главная дорога, Бибирево, район Бибирево, Москва, Центральный федеральный округ, 127346, Россия"}, {"id": 11, "lattitude": 55.664121, "longtitude": 37.885792, "address": "М-5, 22-й км Новорязанского шоссе, Люберцы, городской округ Люберцы, Московская область, Центральный федеральный округ, 140011, Россия"}, {"id": 12, "lattitude": 55.804366, "longtitude": 37.929839, "address": "Детский сад №5 \"Медвежонок\", улица Мира, Балашиха-1, Балашиха, городской округ Балашиха, Московская область, Центральный федеральный округ, 143904, Россия"}, {"id": 13, "lattitude": 55.585559, "longtitude": 37.912883, "address": "Гимназия №4, проезд Гонора Л. Р., Лыткарино, городской округ Лыткарино, Московская область, Центральный федеральный округ, 140083, Россия"}, {"id": 14, "lattitude": 55.836176, "longtitude": 37.491088, "address": "6 с13, улица Адмирала Макарова, Войковский район, Москва, Центральный федеральный округ, 125212, Россия"}, {"id": 15, "lattitude": 55.570096, "longtitude": 37.6109, "address": "Дубровский, Ленинский городской округ, Московская область, Центральный федеральный округ, 142718, Россия"}, {"id": 16, "lattitude": 55.884678, "longtitude": 37.773602, "address": "Кропоткинский проезд, Дружба, Мытищи, городской округ Мытищи, Московская область, Центральный федеральный округ, 140152, Россия"}, {"id": 17, "lattitude": 55.839721, "longtitude": 37.684593, "address": "Северо-Восточная хорда, район Метрогородок, Москва, Центральный федеральный округ, 107564, Россия"}, {"id": 18, "lattitude": 55.605389, "longtitude": 37.478623, "address": "Новый инструмент, 12 с9, улица Адмирала Корнилова, поселение \"Мосрентген\", Москва, Центральный федеральный округ, 142704, Россия"}, {"id": 19, "lattitude": 55.800996, "longtitude": 37.44207, "address": "Берёзы парк, Строгинское шоссе, район Строгино, Москва, Центральный федеральный округ, 123631, Россия"}, {"id": 20, "lattitude": 55.706423, "longtitude": 37.812379, "address": "Прогимназия №1882, Ферганская улица, Выхино, район Выхино-Жулебино, Москва, Центральный федеральный округ, 109444, Россия"}, {"id": 21, "lattitude": 55.578212, "longtitude": 37.787019, "address": "Ленинский городской округ, Московская область, Центральный федеральный округ, Россия"}, {"id": 22, "lattitude": 55.590052, "longtitude": 37.813977, "address": "Церковь Георгия Победоносца, Советская улица, Мамоново, Ленинский городской округ, Московская область, Центральный федеральный округ, 142715, Россия"}, {"id": 23, "lattitude": 55.898666, "longtitude": 37.382174, "address": "73 к5, Новогорская улица, Дом отдыха «Шереметьевский», район Куркино, Москва, Центральный федеральный округ, 125466, Россия"}, {"id": 24, "lattitude": 55.71412, "longtitude": 37.658986, "address": "Культурный центр ЗИЛ, 4 к1, Восточная улица, Даниловский район, Москва, Центральный федеральный округ, 115280, Россия"}, {"id": 25, "lattitude": 55.68192, "longtitude": 37.729185, "address": "36, улица Полбина, район Печатники, Москва, Центральный федеральный округ, 109388, Россия"}, {"id": 26, "lattitude": 55.684188, "longtitude": 37.853485, "address": "26 к1, улица Генерала Кузнецова, район Выхино-Жулебино, Москва, Центральный федеральный округ, 109431, Россия"}, {"id": 27, "lattitude": 55.724424, "longtitude": 37.383729, "address": "10 к3 с3, улица Горбунова, Можайский район, Москва, Центральный федеральный округ, 121596, Россия"}, {"id": 28, "lattitude": 55.632397, "longtitude": 37.7776, "address": "улица Красный Луг, Братеево, район Братеево, Москва, Центральный федеральный округ, 115408, Россия"}, {"id": 29, "lattitude": 55.608862, "longtitude": 37.48475, "address": "Мосрентген, поселение \"Мосрентген\", Москва, Центральный федеральный округ, 142704, Россия"}, {"id": 30, "lattitude": 55.763117, "longtitude": 37.810655, "address": "район Ивановское, Москва, Центральный федеральный округ, 111399, Россия"}, {"id": 31, "lattitude": 55.709844, "longtitude": 37.769028, "address": "25, Зеленодольская улица, район Кузьминки, Москва, Центральный федеральный округ, 109443, Россия"}, {"id": 32, "lattitude": 55.893993, "longtitude": 37.517488, "address": "Объединенный институт высоких температур Российской академии наук, Лобненская улица, Дмитровский, Москва, Дмитровский район, Москва, Центральный федеральный округ, 127411, Россия"}, {"id": 33, "lattitude": 55.860656, "longtitude": 37.392974, "address": "20, Садовая улица, Путилково, городской округ Красногорск, Московская область, Центральный федеральный округ, 143441, Россия"}, {"id": 34, "lattitude": 55.613826, "longtitude": 37.894211, "address": "городской округ Люберцы, Московская область, Центральный федеральный округ, 140082, Россия"}, {"id": 35, "lattitude": 55.902763, "longtitude": 37.394934, "address": "Водозаборный узел \"Химки-3\", Молодёжная улица, Родионово, Новокуркино, Химки, городской округ Химки, Московская область, Центральный федеральный округ, 119296, Россия"}, {"id": 36, "lattitude": 55.775022, "longtitude": 37.871554, "address": "Авторынок, Транспортная улица, Восточная промзона, Балашиха, городской округ Реутов, Московская область, Центральный федеральный округ, 143960, Россия"}, {"id": 37, "lattitude": 55.613594, "longtitude": 37.617762, "address": "4 с1, 1-й Дорожный проезд, район Чертаново Центральное, Москва, Центральный федеральный округ, 117545, Россия"}, {"id": 38, "lattitude": 55.690121, "longtitude": 37.656071, "address": "10 к2, проспект Лихачёва, Даниловский район, Москва, Центральный федеральный округ, 115432, Россия"}, {"id": 39, "lattitude": 55.724908, "longtitude": 37.368665, "address": "2-я Запрудная улица, CT «Дружба», Немчиновка, Одинцовский городской округ, Московская область, Центральный федеральный округ, 143025, Россия"}, {"id": 40, "lattitude": 55.724832, "longtitude": 37.738148, "address": "проектируемый проезд № 57, район Текстильщики, Москва, Центральный федеральный округ, 109518, Россия"}, {"id": 41, "lattitude": 55.743182, "longtitude": 37.669283, "address": "3400, Вековая улица, Таганский район, Москва, Центральный федеральный округ, 109544, Россия"}, {"id": 42, "lattitude": 55.725221, "longtitude": 37.490873, "address": "Староволынская улица, район Фили-Давыдково, Москва, Центральный федеральный округ, 121352, Россия"}, {"id": 43, "lattitude": 55.904929, "longtitude": 37.578202, "address": "35 к2 с1, Новгородская улица, район Лианозово, Москва, Центральный федеральный округ, 126157, Россия"}, {"id": 44, "lattitude": 55.725244, "longtitude": 37.823812, "address": "Колледж МосГУ, 5 с17, улица Юности, Кусково, район Вешняки, Москва, Центральный федеральный округ, 111402, Россия"}, {"id": 45, "lattitude": 55.894475, "longtitude": 37.734677, "address": "33, Железнодорожная улица, Восточная Перловка, Мытищи, городской округ Мытищи, Московская область, Центральный федеральный округ, 141014, Россия"}, {"id": 46, "lattitude": 55.593372, "longtitude": 37.381505, "address": "7, Георгиевская улица, Град Московский, Московский, поселение Московский, Москва, Центральный федеральный округ, 142784, Россия"}, {"id": 47, "lattitude": 55.752097, "longtitude": 37.516317, "address": "3 к1, Большая Филёвская улица, Фили, район Филёвский Парк, Москва, Центральный федеральный округ, 121087, Россия"}, {"id": 48, "lattitude": 55.640886, "longtitude": 37.368531, "address": "8А, Новопеределкинская улица, Ново-Переделкино, Москва, Центральный федеральный округ, 119633, Россия"}, {"id": 49, "lattitude": 55.866623, "longtitude": 37.574027, "address": "вл39А, Поморская улица, Алтуфьевский район, Москва, Центральный федеральный округ, 127410, Россия"}, {"id": 50, "lattitude": 55.64751, "longtitude": 37.807933, "address": "Московский нефтеперерабатывающий завод, МКАД, 16-й километр, район Капотня, Москва, Центральный федеральный округ, 109429, Россия"}, {"id": 51, "lattitude": 55.676578, "longtitude": 37.715462, "address": "улица Гурьянова, район Печатники, Москва, Центральный федеральный округ, 109388, Россия"}, {"id": 52, "lattitude": 55.677441, "longtitude": 37.585254, "address": "Черёмушки-Знаменское, Севастопольский проспект, район Котловка, Москва, Центральный федеральный округ, 113786, Россия"}, {"id": 53, "lattitude": 55.691539, "longtitude": 37.827221, "address": "201, Волгоградский проспект, район Выхино-Жулебино, Москва, Центральный федеральный округ, 109507, Россия"}, {"id": 54, "lattitude": 55.690596, "longtitude": 37.484705, "address": "Мичуринский проспект, район Раменки, Москва, Центральный федеральный округ, 119607, Россия"}, {"id": 55, "lattitude": 55.860664, "longtitude": 37.939303, "address": "Пехра-Никольское, Новый свет, Балашиха, городской округ Балашиха, Московская область, Центральный федеральный округ, 143909, Россия"}, {"id": 56, "lattitude": 55.696569, "longtitude": 37.556753, "address": "Детский сад №2041, 11, улица Фотиевой, Гагаринский район, Москва, Центральный федеральный округ, 119333, Россия"}, {"id": 57, "lattitude": 55.642196, "longtitude": 37.34708, "address": "3, улица Скульптора Мухиной, Ново-Переделкино, Москва, Центральный федеральный округ, 119634, Россия"}, {"id": 58, "lattitude": 55.838727, "longtitude": 37.546072, "address": "Лаборатория прудового рыбоводства, Большая Академическая улица, Тимирязевский район, Москва, район Коптево, Москва, Центральный федеральный округ, 125183, Россия"}, {"id": 59, "lattitude": 55.635371, "longtitude": 37.930206, "address": "Токарёвская улица, 2-й квартал, Чкалово, городской округ Люберцы, Московская область, Центральный федеральный округ, 140073, Россия"}, {"id": 60, "lattitude": 55.820556, "longtitude": 37.700027, "address": "Жилой комплекс \"Лосиный остров\", 3А, Погонный проезд, Богородское, Москва, район Богородское, Москва, Центральный федеральный округ, 107564, Россия"}, {"id": 61, "lattitude": 55.887747, "longtitude": 37.355846, "address": "16, Соколовская улица 7-й квартал, Коттеджный поселок «Новогорск», Новогорск, Химки, городской округ Химки, Московская область, Центральный федеральный округ, 141435, Россия"}, {"id": 62, "lattitude": 55.671424, "longtitude": 37.751549, "address": "19, Совхозная улица, район Люблино, Москва, Центральный федеральный округ, 109382, Россия"}, {"id": 63, "lattitude": 55.648595, "longtitude": 37.792231, "address": "По требованию, улица Капотня, район Капотня, Москва, Центральный федеральный округ, 109429, Россия"}, {"id": 64, "lattitude": 55.603328, "longtitude": 37.465479, "address": "3 с1, улица Адмирала Корнилова, Мосрентген, поселение \"Мосрентген\", Москва, Центральный федеральный округ, 108802, Россия"}, {"id": 65, "lattitude": 55.824666, "longtitude": 37.660126, "address": "13 с4, улица Касаткина, Алексеевский район, Москва, Центральный федеральный округ, 129301, Россия"}, {"id": 66, "lattitude": 55.694077, "longtitude": 37.423019, "address": "26 с3, Рябиновая улица, район Очаково-Матвеевское, Москва, Центральный федеральный округ, 121471, Россия"}, {"id": 67, "lattitude": 55.741821, "longtitude": 37.703706, "address": "Нижегородский район, Москва, Центральный федеральный округ, 111024, Россия"}, {"id": 68, "lattitude": 55.830745, "longtitude": 37.512088, "address": "26, улица Клары Цеткин, Коптево, Москва, район Коптево, Москва, Центральный федеральный округ, 125130, Россия"}, {"id": 69, "lattitude": 55.812486, "longtitude": 37.686737, "address": "Vacuum, Малая Оленья улица, Москва, район Сокольники, Москва, Центральный федеральный округ, 107014, Россия"}, {"id": 70, "lattitude": 55.737148, "longtitude": 37.81451, "address": "Музей-заповедник Кусково, 2, улица Юности, Кусково, район Вешняки, Москва, Центральный федеральный округ, 111402, Россия"}, {"id": 71, "lattitude": 55.663357, "longtitude": 37.645427, "address": "Детская поликлиника, улица Академика Миллионщикова, район Нагатино-Садовники, Москва, Центральный федеральный округ, 109652, Россия"}, {"id": 72, "lattitude": 55.815159, "longtitude": 37.521639, "address": "ОАО «СКБ ЧМ», 14, улица Космонавта Волкова, Москва, район Коптево, Москва, Центральный федеральный округ, 127299, Россия"}, {"id": 73, "lattitude": 55.708011, "longtitude": 37.336972, "address": "КП «имени Малевича», Коттеджный посёлок имени Казимира Малевича, Немчиновка, Одинцовский городской округ, Московская область, Центральный федеральный округ, 143025, Россия"}, {"id": 74, "lattitude": 55.727772, "longtitude": 37.776194, "address": "49, Зарайская улица, Рязанский район, Москва, Центральный федеральный округ, 109428, Россия"}, {"id": 75, "lattitude": 55.760138, "longtitude": 37.871111, "address": "35/1, улица Гагарина, Реутов, городской округ Реутов, Московская область, Центральный федеральный округ, 143969, Россия"}, {"id": 76, "lattitude": 55.74009, "longtitude": 37.706826, "address": "8, Подъёмная улица, Нижегородский район, Москва, Центральный федеральный округ, 109052, Россия"}, {"id": 77, "lattitude": 55.814543, "longtitude": 37.34546, "address": "25, Вокзальная улица, Павшино, Красногорск, городской округ Красногорск, Московская область, Центральный федеральный округ, 143405, Россия"}, {"id": 78, "lattitude": 55.687962, "longtitude": 37.559562, "address": "Больница №64, 61, улица Вавилова, Академический район, Москва, Центральный федеральный округ, 117292, Россия"}, {"id": 79, "lattitude": 55.565874, "longtitude": 37.650708, "address": "2В, Гибридная улица, Дубровский, Ленинский городской округ, Московская область, Центральный федеральный округ, 142718, Россия"}, {"id": 80, "lattitude": 55.789653, "longtitude": 37.330643, "address": "район Кунцево, Москва, Центральный федеральный округ, 143406, Россия"}, {"id": 81, "lattitude": 55.793955, "longtitude": 37.532136, "address": "45Г к35, Ленинградский проспект, Хорошёвский район, Москва, Центральный федеральный округ, 125190, Россия"}, {"id": 82, "lattitude": 55.62079, "longtitude": 37.358985, "address": "посёлок Ульяновского лесопарка, поселение Московский, Москва, Центральный федеральный округ, 108881, Россия"}, {"id": 83, "lattitude": 55.656859, "longtitude": 37.516267, "address": "28 к1, улица Обручева, Обручевский район, Москва, Центральный федеральный округ, 119421, Россия"}, {"id": 84, "lattitude": 55.699421, "longtitude": 37.655958, "address": "29 к5, 2-й Кожуховский проезд, Даниловский район, Москва, Центральный федеральный округ, 115432, Россия"}, {"id": 85, "lattitude": 55.680412, "longtitude": 37.935245, "address": "23 с5, 1-я Вольская улица, Некрасовка, Москва, район Некрасовка, Москва, Центральный федеральный округ, 140010, Россия"}, {"id": 86, "lattitude": 55.867508, "longtitude": 37.941896, "address": "Супонево, Оболдино, городской округ Щёлково, Московская область, Центральный федеральный округ, 141134, Россия"}, {"id": 87, "lattitude": 55.592992, "longtitude": 37.318796, "address": "Сосновая улица, Мешково, поселение Московский, Москва, Центральный федеральный округ, 142782, Россия"}, {"id": 88, "lattitude": 55.807023, "longtitude": 37.423732, "address": "Жилой комплекс \"Олимпия\", 39 к1, улица Исаковского, район Строгино, Москва, Центральный федеральный округ, 123181, Россия"}, {"id": 89, "lattitude": 55.842843, "longtitude": 37.678483, "address": "Красная сосна, улица Платформа Северянин, Ярославский район, Москва, Центральный федеральный округ, 129327, Россия"}, {"id": 90, "lattitude": 55.725679, "longtitude": 37.807184, "address": "Поликлиника №80, 10А, улица Молдагуловой, район Вешняки, Москва, Центральный федеральный округ, 111395, Россия"}, {"id": 91, "lattitude": 55.627917, "longtitude": 37.617697, "address": "Варшавское шоссе, район Чертаново Северное, Москва, Центральный федеральный округ, 117587, Россия"}, {"id": 92, "lattitude": 55.595724, "longtitude": 37.339571, "address": "3-й микрорайон, Московский, поселение Московский, Москва, Центральный федеральный округ, 142784, Россия"}, {"id": 93, "lattitude": 55.635599, "longtitude": 37.68317, "address": "район Царицыно, Москва, Центральный федеральный округ, 115304, Россия"}, {"id": 94, "lattitude": 55.688632, "longtitude": 37.830346, "address": "МКАД, 10-й километр, район Выхино-Жулебино, Москва, Центральный федеральный округ, 109542, Россия"}, {"id": 95, "lattitude": 55.664365, "longtitude": 37.457138, "address": "Востряковское шоссе, Тропарёво-Никулино, Москва, Центральный федеральный округ, 119332, Россия"}, {"id": 96, "lattitude": 55.658308, "longtitude": 37.702316, "address": "1, 4-я Курьяновская улица, район Печатники, Москва, Центральный федеральный округ, 109235, Россия"}, {"id": 97, "lattitude": 55.905112, "longtitude": 37.937691, "address": "улица 26 Бакинских Комиссаров, Валентиновка, Загорянский, городской округ Щёлково, Московская область, Центральный федеральный округ, 141180, Россия"}, {"id": 98, "lattitude": 55.593973, "longtitude": 37.767841, "address": "8-й Анисовый проезд, СНТ \"Анис\", Ащерино, Ленинский городской округ, Московская область, Центральный федеральный округ, 142715, Россия"}, {"id": 99, "lattitude": 55.599978, "longtitude": 37.835314, "address": "АвтоФорвард, улица Новая Слобода, Слобода, Ленинский городской округ, Московская область, Центральный федеральный округ, 140091, Россия"}, {"id": 100, "lattitude": 55.585523, "longtitude": 37.355199, "address": "Валуевское шоссе, Московский, поселение Московский, Москва, Центральный федеральный округ, 142784, Россия"}, {"id": 101, "lattitude": 55.815556, "longtitude": 37.469658, "address": "Усадьба Покровское-Стрешнево, Полесский проезд, район Покровское-Стрешнево, Москва, Центральный федеральный округ, 123367, Россия"}, {"id": 102, "lattitude": 55.588696, "longtitude": 37.38255, "address": "11, Георгиевская улица, Град Московский, Московский, поселение Московский, Москва, Центральный федеральный округ, 142784, Россия"}, {"id": 103, "lattitude": 55.616548, "longtitude": 37.673762, "address": "Театр юного зрителя (областной), Прохладная улица, район Бирюлёво Восточное, Москва, Центральный федеральный округ, 115516, Россия"}, {"id": 104, "lattitude": 55.864217, "longtitude": 37.783124, "address": "городской округ Балашиха, Московская область, Центральный федеральный округ, Россия"}, {"id": 105, "lattitude": 55.716767, "longtitude": 37.78753, "address": "36, Рязанский проспект (дублёр), Рязанский район, Москва, Центральный федеральный округ, 109456, Россия"}, {"id": 106, "lattitude": 55.858885, "longtitude": 37.870443, "address": "городской округ Балашиха, Московская область, Центральный федеральный округ, Россия"}, {"id": 107, "lattitude": 55.737055, "longtitude": 37.856589, "address": "12 к4, Новокосинская улица, район Новокосино, Москва, Центральный федеральный округ, 111673, Россия"}, {"id": 108, "lattitude": 55.63562, "longtitude": 37.429449, "address": "А5, вл6 с1 кА5, 22-й км Киевского шоссе, Бизнес-парк «Румянцево», поселение Московский, Москва, Центральный федеральный округ, 119629, Россия"}, {"id": 109, "lattitude": 55.738703, "longtitude": 37.62596, "address": "9/12 с1, улица Малая Ордынка, район Замоскворечье, Москва, Центральный федеральный округ, 119017, Россия"}, {"id": 110, "lattitude": 55.71827, "longtitude": 37.491691, "address": "проспект Генерала Дорохова, район Раменки, Москва, Центральный федеральный округ, 119501, Россия"}, {"id": 111, "lattitude": 55.844965, "longtitude": 37.751516, "address": "тропа Выживальщика, район Метрогородок, Москва, Центральный федеральный округ, 107150, Россия"}, {"id": 112, "lattitude": 55.60741, "longtitude": 37.318551, "address": "4-я Внуковская улица, Акатово, район Внуково, поселение Московский, Москва, Центральный федеральный округ, 111674, Россия"}, {"id": 113, "lattitude": 55.760633, "longtitude": 37.911988, "address": "26, Пионерская улица, Салтыковка, Балашиха, городской округ Балашиха, Московская область, Центральный федеральный округ, 143930, Россия"}, {"id": 114, "lattitude": 55.771993, "longtitude": 37.818072, "address": "шоссе Энтузиастов, район Ивановское, Москва, Центральный федеральный округ, 105568, Россия"}, {"id": 115, "lattitude": 55.619973, "longtitude": 37.569279, "address": "Коньковая лыжная трасса ГТО, район Ясенево, Москва, Центральный федеральный округ, Россия"}, {"id": 116, "lattitude": 55.725496, "longtitude": 37.602478, "address": "8 к8, Ленинский проспект, район Якиманка, Москва, Центральный федеральный округ, 111991, Россия"}, {"id": 117, "lattitude": 55.836917, "longtitude": 37.784706, "address": "Абрамцевская просека, район Гольяново, Москва, Центральный федеральный округ, 107065, Россия"}, {"id": 118, "lattitude": 55.781645, "longtitude": 37.32241, "address": "район Кунцево, Захарково, городской округ Красногорск, Московская область, Центральный федеральный округ, 143420, Россия"}, {"id": 119, "lattitude": 55.649253, "longtitude": 37.637297, "address": "3 к1, 1-й Котляковский переулок, район Москворечье-Сабурово, Москва, Центральный федеральный округ, 115201, Россия"}, {"id": 120, "lattitude": 55.592863, "longtitude": 37.747033, "address": "Транснефть - узел связи, центр обработки данных, проектируемый проезд № 5538, Развилка, Ленинский городской округ, Московская область, Центральный федеральный округ, 142716, Россия"}, {"id": 121, "lattitude": 55.874465, "longtitude": 37.424507, "address": "МКАД, 74-й километр, Новобутаково, район Северное Тушино, Москва, Центральный федеральный округ, 125481, Россия"}, {"id": 122, "lattitude": 55.768886, "longtitude": 37.518159, "address": "Звенигородское шоссе, Хорошёвский район, Москва, Центральный федеральный округ, 123007, Россия"}, {"id": 123, "lattitude": 55.568135, "longtitude": 37.744479, "address": "Полигон МЧС \"Космос\", Спортивная улица, Малое Видное, Ленинский городской округ, Московская область, Центральный федеральный округ, 142715, Россия"}, {"id": 124, "lattitude": 55.624784, "longtitude": 37.758324, "address": "Бесединское шоссе, район Зябликово, Москва, Центральный федеральный округ, 115612, Россия"}, {"id": 125, "lattitude": 55.626035, "longtitude": 37.677054, "address": "ГСК-11 \"Эльбрус\", 18А, Каспийская улица, район Царицыно, Москва, Центральный федеральный округ, 115304, Россия"}, {"id": 126, "lattitude": 55.755896, "longtitude": 37.403377, "address": "52, Рублёвское шоссе (дублёр), Крылатское, Москва, район Крылатское, Москва, Центральный федеральный округ, 121609, Россия"}, {"id": 127, "lattitude": 55.708117, "longtitude": 37.770373, "address": "Детский сад №176, 2 к2, улица Шумилова, район Кузьминки, Москва, Центральный федеральный округ, 109443, Россия"}, {"id": 128, "lattitude": 55.602235, "longtitude": 37.851495, "address": "Ленинский городской округ, Московская область, Центральный федеральный округ, Россия"}, {"id": 129, "lattitude": 55.893585, "longtitude": 37.859634, "address": "Проезд 17, СНТ «Каховка», Торфопредприятие, Королёв, городской округ Королёв, Московская область, Центральный федеральный округ, 141076, Россия"}, {"id": 130, "lattitude": 55.644971, "longtitude": 37.413995, "address": "Государственное бюджетное образовательное учреждение школа № 1000. Детский сад \"Снигиренок\", 6, Волынская улица, район Солнцево, Москва, Центральный федеральный округ, 119620, Россия"}, {"id": 131, "lattitude": 55.574933, "longtitude": 37.501956, "address": "Бачурино, поселение Сосенское, Москва, Центральный федеральный округ, 142770, Россия"}, {"id": 132, "lattitude": 55.875471, "longtitude": 37.932841, "address": "Оболдино, городской округ Щёлково, Московская область, Центральный федеральный округ, 141134, Россия"}, {"id": 133, "lattitude": 55.641564, "longtitude": 37.549243, "address": "56/40, Севастопольский проспект, район Коньково, Москва, Центральный федеральный округ, 117042, Россия"}, {"id": 134, "lattitude": 55.703731, "longtitude": 37.405248, "address": "Bitstop, Сколковское шоссе, Можайский, Можайский район, Москва, Центральный федеральный округ, 121596, Россия"}, {"id": 135, "lattitude": 55.909119, "longtitude": 37.467093, "address": "Источник св. Георгия, «Нева», Лобаново, Старбеево, Клязьма-Старбеево, Химки, городской округ Химки, Московская область, Центральный федеральный округ, 141401, Россия"}, {"id": 136, "lattitude": 55.803907, "longtitude": 37.764395, "address": "1 к5, Сиреневый бульвар, район Северное Измайлово, Москва, Центральный федеральный округ, 105122, Россия"}, {"id": 137, "lattitude": 55.570741, "longtitude": 37.880825, "address": "Ленинский городской округ, Московская область, Центральный федеральный округ, Россия"}, {"id": 138, "lattitude": 55.69562, "longtitude": 37.527923, "address": "Ломоносовский корпус МГУ, 27 к1, Ломоносовский проспект (дублёр), район Раменки, Москва, Центральный федеральный округ, 119311, Россия"}, {"id": 139, "lattitude": 55.812718, "longtitude": 37.316484, "address": "26, Железнодорожная улица, Райцентр, Красногорск, городской округ Красногорск, Московская область, Центральный федеральный округ, 143402, Россия"}, {"id": 140, "lattitude": 55.699795, "longtitude": 37.75269, "address": "Волжский, 113А к1, Волжский бульвар, район Текстильщики, Москва, Центральный федеральный округ, 109462, Россия"}, {"id": 141, "lattitude": 55.838753, "longtitude": 37.616971, "address": "Золотой колос, Кольцевая дорога ВДНХ, Выставка достижений народного хозяйства, Останкинский район, Москва, Центральный федеральный округ, 127273, Россия"}, {"id": 142, "lattitude": 55.898714, "longtitude": 37.349481, "address": "мост Любви, Заречная улица, Новогорск, Химки, городской округ Химки, Московская область, Центральный федеральный округ, 125466, Россия"}, {"id": 143, "lattitude": 55.594028, "longtitude": 37.327927, "address": "СНТ «Мешково-2», Мешково, поселение Московский, Москва, Центральный федеральный округ, 142782, Россия"}, {"id": 144, "lattitude": 55.757283, "longtitude": 37.567027, "address": "14/20 к2, Рочдельская улица, Пресненский район, Москва, Центральный федеральный округ, 123022, Россия"}, {"id": 145, "lattitude": 55.737797, "longtitude": 37.474466, "address": "10 к1, Малая Филёвская улица, район Фили-Давыдково, Москва, Центральный федеральный округ, 121433, Россия"}, {"id": 146, "lattitude": 55.619805, "longtitude": 37.530938, "address": "Усадьба Узкое, Санаторная аллея, Узкое, район Ясенево, Москва, Центральный федеральный округ, 117321, Россия"}, {"id": 147, "lattitude": 55.883572, "longtitude": 37.431947, "address": "4, Куркинское шоссе, Новобутаково, Новые Химки, Химки, городской округ Химки, Московская область, Центральный федеральный округ, 141407, Россия"}, {"id": 148, "lattitude": 55.626481, "longtitude": 37.693323, "address": "Шипиловский проезд, район Орехово-Борисово Северное, Москва, Центральный федеральный округ, 115569, Россия"}, {"id": 149, "lattitude": 55.615227, "longtitude": 37.763626, "address": "28, Ореховый бульвар, район Зябликово, Москва, Центральный федеральный округ, 115682, Россия"}, {"id": 150, "lattitude": 55.681905, "longtitude": 37.594185, "address": "43 к3, улица Дмитрия Ульянова, район Котловка, Москва, Центральный федеральный округ, 113786, Россия"}, {"id": 151, "lattitude": 55.793088, "longtitude": 37.461517, "address": "НИИ неорганических материалов им. Бочвара, улица Берзарина, Октябрьское Поле, район Щукино, Москва, Центральный федеральный округ, 123098, Россия"}, {"id": 152, "lattitude": 55.759649, "longtitude": 37.577191, "address": "Метро «Краснопресненская», улица Заморёнова, Пресненский район, Москва, Центральный федеральный округ, 123242, Россия"}, {"id": 153, "lattitude": 55.617976, "longtitude": 37.852961, "address": "Водники, Дзержинская улица, Дзержинский, городской округ Дзержинский, Московская область, Центральный федеральный округ, 140090, Россия"}, {"id": 154, "lattitude": 55.603835, "longtitude": 37.798718, "address": "Дроздово, Ленинский городской округ, Московская область, Центральный федеральный округ, 109649, Россия"}, {"id": 155, "lattitude": 55.871416, "longtitude": 37.88962, "address": "улица Погонный участок, 12-й переключатель, Королёв, городской округ Королёв, Московская область, Центральный федеральный округ, 141062, Россия"}, {"id": 156, "lattitude": 55.594886, "longtitude": 37.603097, "address": "Фасоль, Россошанская улица, район Чертаново Южное, Москва, Центральный федеральный округ, 117405, Россия"}, {"id": 157, "lattitude": 55.60057, "longtitude": 37.537078, "address": "Школа № 1561. Корпус №1, улица Паустовского, район Ясенево, Москва, Центральный федеральный округ, 117463, Россия"}, {"id": 158, "lattitude": 55.857565, "longtitude": 37.692169, "address": "Московский государственный строительный университет, 26, Ярославское шоссе, Ярославский район, Москва, Центральный федеральный округ, 129337, Россия"}, {"id": 159, "lattitude": 55.79674, "longtitude": 37.894658, "address": "Объездное шоссе, Горенки, Балашиха, городской округ Балашиха, Московская область, Центральный федеральный округ, 143912, Россия"}, {"id": 160, "lattitude": 55.636105, "longtitude": 37.622979, "address": "проектируемый проезд № 6414, район Чертаново Северное, Москва, Центральный федеральный округ, 117587, Россия"}, {"id": 161, "lattitude": 55.666447, "longtitude": 37.768154, "address": "Белореченская улица, район Марьино, Москва, Центральный федеральный округ, 109387, Россия"}, {"id": 162, "lattitude": 55.715311, "longtitude": 37.387466, "address": "Барвихинская улица, Сетунь, Можайский, Можайский район, Москва, Центральный федеральный округ, 121596, Россия"}, {"id": 163, "lattitude": 55.806767, "longtitude": 37.414147, "address": "Детский сад №1259, улица Маршала Катукова, район Строгино, Москва, Центральный федеральный округ, 123181, Россия"}, {"id": 164, "lattitude": 55.711062, "longtitude": 37.657222, "address": "Пинскдрев, 26 с24, улица Ленинская Слобода, Даниловский район, Москва, Центральный федеральный округ, 115280, Россия"}, {"id": 165, "lattitude": 55.687346, "longtitude": 37.575507, "address": "24, улица Дмитрия Ульянова, Академический район, Москва, Центральный федеральный округ, 117036, Россия"}, {"id": 166, "lattitude": 55.863054, "longtitude": 37.829669, "address": "городской округ Балашиха, Московская область, Центральный федеральный округ, Россия"}, {"id": 167, "lattitude": 55.703093, "longtitude": 37.390312, "address": "Можайский, Можайский район, Москва, Одинцовский городской округ, Москва, Центральный федеральный округ, 121596, Россия"}, {"id": 168, "lattitude": 55.868446, "longtitude": 37.400842, "address": "3, Новотушинская улица, Жилой комплекс \"Новое Тушино\", Путилково, городской округ Красногорск, Московская область, Центральный федеральный округ, 143440, Россия"}, {"id": 169, "lattitude": 55.675365, "longtitude": 37.629447, "address": "59 к3, Варшавское шоссе, район Нагатино-Садовники, Москва, Центральный федеральный округ, 115230, Россия"}, {"id": 170, "lattitude": 55.752646, "longtitude": 37.931671, "address": "Большая Прудовая улица, Салтыковка, Балашиха, городской округ Балашиха, Московская область, Центральный федеральный округ, 143930, Россия"}, {"id": 171, "lattitude": 55.663424, "longtitude": 37.549912, "address": "6 к1, улица Намёткина, район Черёмушки, Москва, Центральный федеральный округ, 117420, Россия"}, {"id": 172, "lattitude": 55.8028, "longtitude": 37.549512, "address": "9 с3, улица 8 Марта, район Аэропорт, Москва, Центральный федеральный округ, 117623, Россия"}, {"id": 173, "lattitude": 55.813863, "longtitude": 37.779516, "address": "7 с12, улица Бирюсинка, район Гольяново, Москва, Центральный федеральный округ, 105425, Россия"}, {"id": 174, "lattitude": 55.605727, "longtitude": 37.434303, "address": "Некрополь, Филимонковское шоссе, поселение Сосенское, Москва, Центральный федеральный округ, 108802, Россия"}, {"id": 175, "lattitude": 55.833374, "longtitude": 37.542633, "address": "Московский Политех, улица Прянишникова, Тимирязевский район, Москва, Центральный федеральный округ, 127550, Россия"}, {"id": 176, "lattitude": 55.615608, "longtitude": 37.904771, "address": "городской округ Люберцы, Московская область, Центральный федеральный округ, 140082, Россия"}, {"id": 177, "lattitude": 55.714205, "longtitude": 37.674393, "address": "11, 2-я улица Машиностроения, Южнопортовый район, Москва, Центральный федеральный округ, 115193, Россия"}, {"id": 178, "lattitude": 55.892808, "longtitude": 37.561094, "address": "77 к1, Керамический проезд, район Восточное Дегунино, Москва, Центральный федеральный округ, 127591, Россия"}, {"id": 179, "lattitude": 55.751554, "longtitude": 37.385202, "address": "ЦКБ Управления делами Президента РФ, 3-я Черепковская улица, район Кунцево, Москва, Центральный федеральный округ, 121500, Россия"}, {"id": 180, "lattitude": 55.879621, "longtitude": 37.791579, "address": "кормушка, Кропоткинский проезд, Дружба, Мытищи, городской округ Мытищи, Московская область, Центральный федеральный округ, 140152, Россия"}, {"id": 181, "lattitude": 55.81886, "longtitude": 37.454087, "address": "Волоколамское шоссе, район Покровское-Стрешнево, Москва, Центральный федеральный округ, 534876, Россия"}, {"id": 182, "lattitude": 55.84115, "longtitude": 37.711175, "address": "район Метрогородок, Москва, Центральный федеральный округ, Россия"}, {"id": 183, "lattitude": 55.62498, "longtitude": 37.807633, "address": "Агрофирма Нива, Алексеевская улица, Дзержинский, городской округ Дзержинский, Московская область, Центральный федеральный округ, 109649, Россия"}, {"id": 184, "lattitude": 55.745871, "longtitude": 37.600241, "address": "10 с2, Гоголевский бульвар, 33, район Хамовники, Москва, Центральный федеральный округ, 119019, Россия"}, {"id": 185, "lattitude": 55.904525, "longtitude": 37.777127, "address": "улица Водопроводная Аллея, микрорайон Шараповка, Мытищи, городской округ Мытищи, Московская область, Центральный федеральный округ, 141009, Россия"}, {"id": 186, "lattitude": 55.741925, "longtitude": 37.863227, "address": "29, Новокосинская улица, район Новокосино, Москва, Центральный федеральный округ, 111673, Россия"}, {"id": 187, "lattitude": 55.665728, "longtitude": 37.469383, "address": "8 к1, улица Покрышкина, Тропарёво-Никулино, Москва, Центральный федеральный округ, 119602, Россия"}, {"id": 188, "lattitude": 55.834469, "longtitude": 37.446237, "address": "7 с14, Вишнёвая улица, Тушино, район Покровское-Стрешнево, Москва, Центральный федеральный округ, 125362, Россия"}, {"id": 189, "lattitude": 55.608257, "longtitude": 37.72043, "address": "Участникам Великой Отечественной войны от благодарных потомков, Воронежская улица, район Орехово-Борисово Южное, Москва, Центральный федеральный округ, 115583, Россия"}, {"id": 190, "lattitude": 55.733283, "longtitude": 37.913073, "address": "Приморская тропа, городской округ Балашиха, Московская область, Центральный федеральный округ, 111647, Россия"}, {"id": 191, "lattitude": 55.674959, "longtitude": 37.877799, "address": "КПП, Московская улица, Люберцы, городской округ Люберцы, Московская область, Центральный федеральный округ, 140011, Россия"}, {"id": 192, "lattitude": 55.87304, "longtitude": 37.666023, "address": "2348, Енисейская улица, Бабушкинский район, Москва, Центральный федеральный округ, 129281, Россия"}, {"id": 193, "lattitude": 55.802904, "longtitude": 37.594107, "address": "1 с10, Складочная улица, Бутырский район, Москва, Центральный федеральный округ, 127018, Россия"}, {"id": 194, "lattitude": 55.601269, "longtitude": 37.905246, "address": "Волкуша, Лыткарино, городской округ Лыткарино, Московская область, Центральный федеральный округ, 140083, Россия"}, {"id": 195, "lattitude": 55.66313, "longtitude": 37.935971, "address": "улица Кольцова, Томилино, городской округ Люберцы, Московская область, Центральный федеральный округ, 140070, Россия"}, {"id": 196, "lattitude": 55.910963, "longtitude": 37.56995, "address": "проектируемый проезд № 6438, район Лианозово, Москва, городской округ Мытищи, Московская область, Центральный федеральный округ, 127571, Россия"}, {"id": 197, "lattitude": 55.756778, "longtitude": 37.531073, "address": "32 с10, Шмитовский проезд, Камушки, Пресненский район, Москва, Центральный федеральный округ, 123317, Россия"}, {"id": 198, "lattitude": 55.677377, "longtitude": 37.644186, "address": "2 с8, 2-й Нагатинский проезд, район Нагатино-Садовники, Москва, Центральный федеральный округ, 115533, Россия"}, {"id": 199, "lattitude": 55.730285, "longtitude": 37.513514, "address": "8, улица Братьев Фонченко, Поклонная гора, район Дорогомилово, Москва, Центральный федеральный округ, 121170, Россия"}, {"id": 200, "lattitude": 55.782956, "longtitude": 37.351374, "address": "Рублёвская водопроводная станция, 1, улица Василия Ботылёва, район Кунцево, Москва, Центральный федеральный округ, 121500, Россия"}, {"id": 201, "lattitude": 55.808303, "longtitude": 37.348251, "address": "85, Центральная улица, Павшино, Красногорск, городской округ Красногорск, Московская область, Центральный федеральный округ, 143405, Россия"}, {"id": 202, "lattitude": 55.670104, "longtitude": 37.691576, "address": "Станция мониторинга качества атмосферного воздуха №2, Коломенская набережная, район Нагатинский Затон, Москва, Центральный федеральный округ, 115142, Россия"}, {"id": 203, "lattitude": 55.849523, "longtitude": 37.351167, "address": "1 к1, 3-й Митинский переулок, район Митино, Москва, Центральный федеральный округ, 125368, Россия"}, {"id": 204, "lattitude": 55.866239, "longtitude": 37.806162, "address": "Клёвое место, МКАД, 100-й километр, район Гольяново, Москва, Центральный федеральный округ, 107065, Россия"}, {"id": 205, "lattitude": 55.881478, "longtitude": 37.595027, "address": "Школа № 1370. Корпус 4, Бибиревская улица, Алтуфьевский район, район Бибирево, Москва, Центральный федеральный округ, 127549, Россия"}, {"id": 206, "lattitude": 55.758758, "longtitude": 37.656102, "address": "Бизнес-центр «Яковоапостольский», 12 с1, Яковоапостольский переулок, Басманный район, Москва, Центральный федеральный округ, 105064, Россия"}, {"id": 207, "lattitude": 55.788187, "longtitude": 37.770214, "address": "45 с6, Измайловский проспект, район Измайлово, Москва, Центральный федеральный округ, 105037, Россия"}, {"id": 208, "lattitude": 55.790461, "longtitude": 37.881095, "address": "4, улица Ситникова, Новое Измайлово, Балашиха, городской округ Балашиха, Московская область, Центральный федеральный округ, 143923, Россия"}, {"id": 209, "lattitude": 55.81307, "longtitude": 37.69579, "address": "Московский инновационный университет, Краснобогатырская улица, Богородское, Москва, район Богородское, Москва, Центральный федеральный округ, 107258, Россия"}, {"id": 210, "lattitude": 55.799892, "longtitude": 37.327058, "address": "Новорижское шоссе, военный городок Павшино, городской округ Красногорск, Московская область, Центральный федеральный округ, 143405, Россия"}, {"id": 211, "lattitude": 55.871186, "longtitude": 37.776036, "address": "городской округ Мытищи, Московская область, Центральный федеральный округ, Россия"}, {"id": 212, "lattitude": 55.65575, "longtitude": 37.869453, "address": "микрорайон Силикат, Котельники, городской округ Котельники, Московская область, Центральный федеральный округ, 140054, Россия"}, {"id": 213, "lattitude": 55.839979, "longtitude": 37.914512, "address": "раскопки, улица Дмитриева, Лукино, Балашиха, городской округ Балашиха, Московская область, Центральный федеральный округ, 143912, Россия"}, {"id": 214, "lattitude": 55.883519, "longtitude": 37.447405, "address": "14, Кольцевая улица, Бутаково, Старые Химки, Химки, городской округ Химки, Московская область, Центральный федеральный округ, 141402, Россия"}, {"id": 215, "lattitude": 55.865171, "longtitude": 37.914623, "address": "Лукино, Балашиха, городской округ Балашиха, Московская область, Центральный федеральный округ, 143912, Россия"}, {"id": 216, "lattitude": 55.623982, "longtitude": 37.657806, "address": "9, Бакинская улица, район Царицыно, Москва, Центральный федеральный округ, 115516, Россия"}, {"id": 217, "lattitude": 55.571902, "longtitude": 37.527139, "address": "Лыжная трасса Альфа-Битца, поселение Сосенское, Москва, Центральный федеральный округ, 117463, Россия"}, {"id": 218, "lattitude": 55.660708, "longtitude": 37.935981, "address": "42, улица Электрификации, Люберцы, городской округ Люберцы, Московская область, Центральный федеральный округ, 140004, Россия"}, {"id": 219, "lattitude": 55.758009, "longtitude": 37.917004, "address": "13, Железнодорожная улица, Салтыковка, Балашиха, городской округ Балашиха, Московская область, Центральный федеральный округ, 143930, Россия"}, {"id": 220, "lattitude": 55.783615, "longtitude": 37.320573, "address": "район Кунцево, Захарково, городской округ Красногорск, Московская область, Центральный федеральный округ, 143420, Россия"}, {"id": 221, "lattitude": 55.765945, "longtitude": 37.918041, "address": "Учительская улица, Салтыковка, Балашиха, городской округ Балашиха, Московская область, Центральный федеральный округ, 143930, Россия"}, {"id": 222, "lattitude": 55.60356, "longtitude": 37.681475, "address": "район Бирюлёво Восточное, Москва, Центральный федеральный округ, 115406, Россия"}, {"id": 223, "lattitude": 55.691979, "longtitude": 37.397566, "address": "2, Берёзовая улица, ЖК Сколково Парк, Заречье, Одинцовский городской округ, Московская область, Центральный федеральный округ, 143085, Россия"}, {"id": 224, "lattitude": 55.627699, "longtitude": 37.546148, "address": "Горнолыжный Спортивный Комплекс \"Севастопольский Проспект\", Севастопольский проспект, Узкое, район Ясенево, Москва, Центральный федеральный округ, 117593, Россия"}, {"id": 225, "lattitude": 55.787906, "longtitude": 37.626744, "address": "Московский областной научно-исследовательский клинический институт им. М. Ф. Владимировского (МОНИКИ), улица Щепкина, Мещанский район, Москва, Центральный федеральный округ, 129090, Россия"}, {"id": 226, "lattitude": 55.753171, "longtitude": 37.772138, "address": "4А, 3-й проезд Перова Поля, район Перово, Москва, Центральный федеральный округ, 111141, Россия"}, {"id": 227, "lattitude": 55.779753, "longtitude": 37.342713, "address": "Рублёвская водопроводная станция, 1, улица Василия Ботылёва, район Кунцево, Москва, Центральный федеральный округ, 121500, Россия"}, {"id": 228, "lattitude": 55.714527, "longtitude": 37.935054, "address": "улица Кожуховская Горка, район Косино-Ухтомский, Москва, район Некрасовка, Москва, Центральный федеральный округ, 100332, Россия"}, {"id": 229, "lattitude": 55.757092, "longtitude": 37.814575, "address": "Государственная клиническая больница им Е. О. Мухина, 17, Федеративный проспект, район Новогиреево, Москва, Центральный федеральный округ, 111399, Россия"}, {"id": 230, "lattitude": 55.741792, "longtitude": 37.533438, "address": "район Дорогомилово, Москва, Центральный федеральный округ, 121165, Россия"}, {"id": 231, "lattitude": 55.872033, "longtitude": 37.877446, "address": "улица Погонный участок, 12-й переключатель, Королёв, городской округ Королёв, Московская область, Центральный федеральный округ, 141062, Россия"}, {"id": 232, "lattitude": 55.868692, "longtitude": 37.82367, "address": "Торфопредприятие, Королёв, городской округ Королёв, Московская область, Центральный федеральный округ, 141076, Россия"}, {"id": 233, "lattitude": 55.685519, "longtitude": 37.530012, "address": "13 к4, улица Строителей, Ломоносовский район, Москва, Центральный федеральный округ, 119311, Россия"}, {"id": 234, "lattitude": 55.898768, "longtitude": 37.541322, "address": "157 с12, Дмитровское шоссе, Дмитровский, Москва, Дмитровский район, Москва, Центральный федеральный округ, 127253, Россия"}, {"id": 235, "lattitude": 55.915105, "longtitude": 37.595302, "address": "Алтуфьевское шоссе, Вёшки, городской округ Мытищи, Московская область, Центральный федеральный округ, 127571, Россия"}, {"id": 236, "lattitude": 55.602381, "longtitude": 37.705355, "address": "Арена Альфа спорт, 63, Шипиловский проезд, район Орехово-Борисово Южное, Москва, Центральный федеральный округ, 109387, Россия"}, {"id": 237, "lattitude": 55.870673, "longtitude": 37.423705, "address": "МКАД, 73-й километр, район Северное Тушино, Москва, Центральный федеральный округ, 125481, Россия"}, {"id": 238, "lattitude": 55.686118, "longtitude": 37.86373, "address": "Школа №1909, 12, улица Маршала Полубоярова, район Выхино-Жулебино, Москва, Центральный федеральный округ, 109156, Россия"}, {"id": 239, "lattitude": 55.698529, "longtitude": 37.327167, "address": "9, Новая улица, Трёхгорка, Одинцовский городской округ, Московская область, Центральный федеральный округ, 143005, Россия"}, {"id": 240, "lattitude": 55.693236, "longtitude": 37.861002, "address": "Жулебино, 2-й микрорайон Жулебино, район Выхино-Жулебино, Москва, городской округ Люберцы, Москва, Центральный федеральный округ, 140002, Россия"}, {"id": 241, "lattitude": 55.657251, "longtitude": 37.723633, "address": "3А с1, Иловайская улица, район Марьино, Москва, Центральный федеральный округ, 109651, Россия"}, {"id": 242, "lattitude": 55.886343, "longtitude": 37.437909, "address": "МТК ГРАНД, 4, Ленинградское шоссе, Бутаково, Старые Химки, Химки, городской округ Химки, Московская область, Центральный федеральный округ, 141407, Россия"}, {"id": 243, "lattitude": 55.71134, "longtitude": 37.881722, "address": "Школа №2036 (дошкольный корпус Дм.-3а), улица Дмитриевского, Кожухово, район Косино-Ухтомский, Москва, Центральный федеральный округ, 111625, Россия"}, {"id": 244, "lattitude": 55.595042, "longtitude": 37.736922, "address": "24;25, МКАД, 24-й километр, район Орехово-Борисово Южное, Москва, Центральный федеральный округ, 115582, Россия"}, {"id": 245, "lattitude": 55.714246, "longtitude": 37.717505, "address": "Авилон, 43 к1, Волгоградский проспект, район Печатники, Москва, Центральный федеральный округ, 111116, Россия"}, {"id": 246, "lattitude": 55.629257, "longtitude": 37.913625, "address": "Московская улица, Токарёво, городской округ Люберцы, Московская область, Центральный федеральный округ, 140073, Россия"}, {"id": 247, "lattitude": 55.870661, "longtitude": 37.765225, "address": "городской округ Мытищи, Московская область, Центральный федеральный округ, Россия"}, {"id": 248, "lattitude": 55.802553, "longtitude": 37.690319, "address": "Большая Оленья улица, Сокольники, Москва, район Сокольники, Москва, Центральный федеральный округ, 107014, Россия"}, {"id": 249, "lattitude": 55.586172, "longtitude": 37.544343, "address": "Зона отдыха \"Битца\", МКАД, 37-й километр, район Ясенево, Москва, Центральный федеральный округ, 117463, Россия"}, {"id": 250, "lattitude": 55.580509, "longtitude": 37.459377, "address": "Столбово, Калужское шоссе (дублёр), поселение Сосенское, Москва, Центральный федеральный округ, 108814, Россия"}, {"id": 251, "lattitude": 55.754285, "longtitude": 37.337979, "address": "Рублёво-Успенское шоссе, Одинцовский городской округ, Московская область, Центральный федеральный округ, 143082, Россия"}, {"id": 252, "lattitude": 55.706813, "longtitude": 37.34346, "address": "Трёхгорка, Одинцовский городской округ, Московская область, Центральный федеральный округ, 143005, Россия"}, {"id": 253, "lattitude": 55.674056, "longtitude": 37.82615, "address": "Стрелково-стендовый комплекс, улица Головачёва, район Люблино, Москва, Центральный федеральный округ, 109380, Россия"}, {"id": 254, "lattitude": 55.677939, "longtitude": 37.513035, "address": "Дом студента на проспекте Вернадского, 37, проспект Вернадского, Проспект Вернадского, Москва, район Проспект Вернадского, Москва, Центральный федеральный округ, 119415, Россия"}, {"id": 255, "lattitude": 55.611016, "longtitude": 37.491142, "address": "район Тёплый Стан, Москва, Центральный федеральный округ, 142704, Россия"}, {"id": 256, "lattitude": 55.671872, "longtitude": 37.828154, "address": "Стрелково-стендовый комплекс, улица Головачёва, район Люблино, Москва, Центральный федеральный округ, 109380, Россия"}, {"id": 257, "lattitude": 55.829854, "longtitude": 37.817115, "address": "6А, Курганская улица, район Гольяново, Москва, Центральный федеральный округ, 107065, Россия"}, {"id": 258, "lattitude": 55.876503, "longtitude": 37.569528, "address": "36, Путевой проезд, Алтуфьевский район, Москва, Центральный федеральный округ, 127410, Россия"}, {"id": 259, "lattitude": 55.889023, "longtitude": 37.330365, "address": "Новогорск, Химки, городской округ Химки, Московская область, Центральный федеральный округ, 141435, Россия"}, {"id": 260, "lattitude": 55.577727, "longtitude": 37.934304, "address": "Тураевское шоссе, Тураево, Лыткарино, городской округ Лыткарино, Московская область, Центральный федеральный округ, 140080, Россия"}, {"id": 261, "lattitude": 55.699011, "longtitude": 37.780487, "address": "101, улица Юных Ленинцев, район Кузьминки, Москва, Центральный федеральный округ, 109439, Россия"}, {"id": 262, "lattitude": 55.869048, "longtitude": 37.449506, "address": "Дом культуры «Алые паруса», улица Свободы, Алёшкино, район Северное Тушино, Москва, Центральный федеральный округ, 125481, Россия"}, {"id": 263, "lattitude": 55.849282, "longtitude": 37.656393, "address": "2 к2, проезд Нансена, Свиблово, район Свиблово, Москва, Центральный федеральный округ, 129343, Россия"}, {"id": 264, "lattitude": 55.600905, "longtitude": 37.787958, "address": "46К-4180, Дроздово, Ленинский городской округ, Московская область, Центральный федеральный округ, 142717, Россия"}, {"id": 265, "lattitude": 55.80986, "longtitude": 37.601479, "address": "6А с2, проезд Добролюбова, Бутырский район, Москва, Центральный федеральный округ, 127474, Россия"}, {"id": 266, "lattitude": 55.77267, "longtitude": 37.897948, "address": "11-я линия, Вишняковское шоссе, микрорайон Дзержинского, Никольско-Архангельский, Балашиха, городской округ Балашиха, Московская область, Центральный федеральный округ, 143956, Россия"}, {"id": 267, "lattitude": 55.754297, "longtitude": 37.871323, "address": "24, улица Октября, 9А микрорайон, Южный Реутов, Реутов, городской округ Реутов, Московская область, Центральный федеральный округ, 143969, Россия"}, {"id": 268, "lattitude": 55.716322, "longtitude": 37.467553, "address": "Давыдково, район Фили-Давыдково, Москва, Центральный федеральный округ, 121352, Россия"}, {"id": 269, "lattitude": 55.824502, "longtitude": 37.925901, "address": "22, микрорайон Гагарина, Балашиха, городской округ Балашиха, Московская область, Центральный федеральный округ, 143913, Россия"}, {"id": 270, "lattitude": 55.744175, "longtitude": 37.591114, "address": "22/4, Пречистенский переулок, 33, район Хамовники, Москва, Центральный федеральный округ, 119034, Россия"}, {"id": 271, "lattitude": 55.829162, "longtitude": 37.670127, "address": "27А, Малахитовая улица, Ростокино, Москва, район Ростокино, Москва, Центральный федеральный округ, 129128, Россия"}, {"id": 272, "lattitude": 55.59161, "longtitude": 37.490606, "address": "Улица 10, СНТ \"Полянка\", поселение Сосенское, Москва, Центральный федеральный округ, 142704, Россия"}, {"id": 273, "lattitude": 55.575882, "longtitude": 37.799083, "address": "Ленинский городской округ, Московская область, Центральный федеральный округ, Россия"}, {"id": 274, "lattitude": 55.579327, "longtitude": 37.635737, "address": "Булатниковская улица, район Бирюлёво Западное, Москва, Центральный федеральный округ, 117403, Россия"}, {"id": 275, "lattitude": 55.853773, "longtitude": 37.329802, "address": "64, 8-й квартал, Ангелово, городской округ Красногорск, Московская область, Центральный федеральный округ, 143342, Россия"}, {"id": 276, "lattitude": 55.878834, "longtitude": 37.869388, "address": "Торфопредприятие, Королёв, городской округ Королёв, Московская область, Центральный федеральный округ, 141076, Россия"}, {"id": 277, "lattitude": 55.642038, "longtitude": 37.658934, "address": "Детский сад №800, 17 к3, Пролетарский проспект, район Москворечье-Сабурово, Москва, Центральный федеральный округ, 115447, Россия"}, {"id": 278, "lattitude": 55.709065, "longtitude": 37.460305, "address": "Нежинская улица, Жилой комплекс «Нежинский Ковчег», район Очаково-Матвеевское, Москва, Центральный федеральный округ, 119517, Россия"}, {"id": 279, "lattitude": 55.757683, "longtitude": 37.593181, "address": "Городская усадьба Черкасской — Баскакова, 44 с2, Большая Никитская улица, 47, Пресненский район, Москва, Центральный федеральный округ, 119049, Россия"}, {"id": 280, "lattitude": 55.624962, "longtitude": 37.689607, "address": "Нижнецарицынская лыжная трасса, район Орехово-Борисово Северное, Москва, Центральный федеральный округ, 115569, Россия"}, {"id": 281, "lattitude": 55.868504, "longtitude": 37.379299, "address": "проектируемый проезд № 989, район Митино, Москва, Центральный федеральный округ, 143441, Россия"}, {"id": 282, "lattitude": 55.912287, "longtitude": 37.854067, "address": "Историко-краеведческий музей, 1А, улица Ильича, Костино, Королёв, городской округ Королёв, Московская область, Центральный федеральный округ, 141080, Россия"}, {"id": 283, "lattitude": 55.678109, "longtitude": 37.746936, "address": "17, Краснодарская улица, район Люблино, Москва, Центральный федеральный округ, 109382, Россия"}, {"id": 284, "lattitude": 55.843036, "longtitude": 37.460983, "address": "Бассейн, Лодочная улица, район Южное Тушино, Москва, Центральный федеральный округ, 123364, Россия"}, {"id": 285, "lattitude": 55.709709, "longtitude": 37.893315, "address": "17, улица Дмитриевского, Кожухово, район Косино-Ухтомский, Москва, Центральный федеральный округ, 111625, Россия"}, {"id": 286, "lattitude": 55.685109, "longtitude": 37.914824, "address": "71, Инициативная улица, Некрасовка, Люберцы, район Некрасовка, городской округ Люберцы, Московская область, Центральный федеральный округ, 140000, Россия"}, {"id": 287, "lattitude": 55.715878, "longtitude": 37.721598, "address": "41Б с4, Волгоградский проспект, район Печатники, Москва, Центральный федеральный округ, 111116, Россия"}, {"id": 288, "lattitude": 55.569456, "longtitude": 37.803883, "address": "Первомайская улица, Коттеджный посёлок «Мисайлово», Мисайлово, Ленинский городской округ, Московская область, Центральный федеральный округ, 142714, Россия"}, {"id": 289, "lattitude": 55.832099, "longtitude": 37.429121, "address": "3 с4, Сходненский тупик, район Покровское-Стрешнево, Москва, Центральный федеральный округ, 125424, Россия"}, {"id": 290, "lattitude": 55.747414, "longtitude": 37.686585, "address": "1 к1, шоссе Энтузиастов, Квартал Независимость, район Лефортово, Москва, Центральный федеральный округ, 111024, Россия"}, {"id": 291, "lattitude": 55.624535, "longtitude": 37.348152, "address": "поселение Внуковское, Москва, Центральный федеральный округ, 119634, Россия"}, {"id": 292, "lattitude": 55.624581, "longtitude": 37.682281, "address": "4А, улица Баженова, район Орехово-Борисово Северное, Москва, Центральный федеральный округ, 115569, Россия"}, {"id": 293, "lattitude": 55.666351, "longtitude": 37.340698, "address": "Дачная улица, Одинцово, Одинцовский городской округ, Московская область, Центральный федеральный округ, 143000, Россия"}, {"id": 294, "lattitude": 55.654246, "longtitude": 37.371789, "address": "район Солнцево, Москва, Центральный федеральный округ, 119619, Россия"}, {"id": 295, "lattitude": 55.75307, "longtitude": 37.823049, "address": "4035, 2-й проспект Новогиреево, район Новогиреево, Москва, Центральный федеральный округ, 111396, Россия"}, {"id": 296, "lattitude": 55.587479, "longtitude": 37.343197, "address": "1 с6А, Верхнее Валуево, поселение Филимонковское, Москва, Центральный федеральный округ, 142780, Россия"}, {"id": 297, "lattitude": 55.875272, "longtitude": 37.483266, "address": "34, улица Дыбенко, район Ховрино, Москва, Центральный федеральный округ, 125475, Россия"}, {"id": 298, "lattitude": 55.574456, "longtitude": 37.368245, "address": "Филимонковское шоссе, СНТ «Верхнее Валуево», квартал № 101, поселение Филимонковское, Москва, Центральный федеральный округ, 142780, Россия"}, {"id": 299, "lattitude": 55.844567, "longtitude": 37.371821, "address": "28 к5, Митинская улица, район Митино, Москва, Центральный федеральный округ, 125430, Россия"}, {"id": 300, "lattitude": 55.59591, "longtitude": 37.713914, "address": "Шипиловский проезд, район Орехово-Борисово Южное, Москва, Центральный федеральный округ, 115582, Россия"}, {"id": 301, "lattitude": 55.603639, "longtitude": 37.470528, "address": "Мосрентген, поселение \"Мосрентген\", Москва, Центральный федеральный округ, 108820, Россия"}, {"id": 302, "lattitude": 55.829392, "longtitude": 37.3986, "address": "проектируемый проезд № 4087, район Покровское-Стрешнево, Москва, Центральный федеральный округ, 125476, Россия"}, {"id": 303, "lattitude": 55.628275, "longtitude": 37.745081, "address": "Детский сад №1752, Задонский проезд, район Зябликово, Москва, Центральный федеральный округ, 115573, Россия"}, {"id": 304, "lattitude": 55.807258, "longtitude": 37.579359, "address": "Море пара, 2-я Хуторская улица, Савёловский район, Москва, Центральный федеральный округ, 127287, Россия"}, {"id": 305, "lattitude": 55.670469, "longtitude": 37.7005, "address": "2, посёлок Шлюзы, район Печатники, Москва, Центральный федеральный округ, 115142, Россия"}, {"id": 306, "lattitude": 55.909649, "longtitude": 37.337721, "address": "Ивановская улица, Планерная, Химки, городской округ Химки, Московская область, Центральный федеральный округ, 141435, Россия"}, {"id": 307, "lattitude": 55.593011, "longtitude": 37.4234, "address": "улица Лобановский Лес, поселение Сосенское, Москва, Центральный федеральный округ, 108802, Россия"}, {"id": 308, "lattitude": 55.634729, "longtitude": 37.627669, "address": "11, Промышленная улица, Котляково, район Царицыно, Москва, Центральный федеральный округ, 115477, Россия"}, {"id": 309, "lattitude": 55.637616, "longtitude": 37.40596, "address": "Озоно-сорбционный блок, 5 с15, Родниковая улица, район Солнцево, Москва, Центральный федеральный округ, 119297, Россия"}, {"id": 310, "lattitude": 55.626219, "longtitude": 37.547979, "address": "Спортбаза «Узкое», Севастопольский проспект, Узкое, район Ясенево, Москва, Центральный федеральный округ, 117593, Россия"}, {"id": 311, "lattitude": 55.854877, "longtitude": 37.632905, "address": "Усадьба Свиблово, Лазоревый проезд, Свиблово, район Свиблово, Москва, Центральный федеральный округ, 129323, Россия"}, {"id": 312, "lattitude": 55.59422, "longtitude": 37.691808, "address": "3-я Радиальная улица, район Бирюлёво Восточное, Москва, Центральный федеральный округ, 115406, Россия"}, {"id": 313, "lattitude": 55.729151, "longtitude": 37.709587, "address": "11 с1, Новохохловская улица, Нижегородский район, Москва, Центральный федеральный округ, 109052, Россия"}, {"id": 314, "lattitude": 55.574209, "longtitude": 37.86156, "address": "Ленинский городской округ, Московская область, Центральный федеральный округ, 142714, Россия"}, {"id": 315, "lattitude": 55.805028, "longtitude": 37.395472, "address": "2 к2, Строгинский бульвар, район Строгино, Москва, Центральный федеральный округ, 123592, Россия"}, {"id": 316, "lattitude": 55.843026, "longtitude": 37.481505, "address": "58 с9, Ленинградское шоссе, Головинский район, Москва, Центральный федеральный округ, 125565, Россия"}, {"id": 317, "lattitude": 55.760797, "longtitude": 37.842495, "address": "МКАД, 2-й километр, район Ивановское, Москва, Центральный федеральный округ, 111555, Россия"}, {"id": 318, "lattitude": 55.630318, "longtitude": 37.373654, "address": "Горнолыжный комплекс «Ново-Переделкино», проектируемый проезд № 6662, Ново-Переделкино, Москва, поселение Московский, Москва, Центральный федеральный округ, 119297, Россия"}, {"id": 319, "lattitude": 55.78158, "longtitude": 37.582544, "address": "2 к13, 3-я улица Ямского Поля, район Беговой, Москва, Центральный федеральный округ, 125040, Россия"}, {"id": 320, "lattitude": 55.738982, "longtitude": 37.359238, "address": "Срезка на 1.5 километра, Одинцовский городской округ, Московская область, Центральный федеральный округ, 143025, Россия"}, {"id": 321, "lattitude": 55.638655, "longtitude": 37.435015, "address": "Е, вл4 кЕ, 22-й км Киевского шоссе, Бизнес-парк «Румянцево», поселение Московский, Москва, Центральный федеральный округ, 142784, Россия"}, {"id": 322, "lattitude": 55.646366, "longtitude": 37.530669, "address": "79, Профсоюзная улица, район Коньково, Москва, Центральный федеральный округ, 117485, Россия"}, {"id": 323, "lattitude": 55.899433, "longtitude": 37.512312, "address": "МКАД, 80-й километр, Дмитровский, Москва, Дмитровский район, Москва, Центральный федеральный округ, 127644, Россия"}, {"id": 324, "lattitude": 55.742008, "longtitude": 37.358643, "address": "Срезка на 1.5 километра, Одинцовский городской округ, Московская область, Центральный федеральный округ, 143025, Россия"}, {"id": 325, "lattitude": 55.646536, "longtitude": 37.910902, "address": "Новорязанское шоссе (дублёр), Люберцы, городской округ Люберцы, Московская область, Центральный федеральный округ, 140006, Россия"}, {"id": 326, "lattitude": 55.819959, "longtitude": 37.661106, "address": "34 к2, улица Константинова, Алексеевский район, Москва, Центральный федеральный округ, 129164, Россия"}, {"id": 327, "lattitude": 55.717648, "longtitude": 37.389818, "address": "Детский сад № 944, Барвихинская улица, Сетунь, Можайский, Можайский район, Москва, Центральный федеральный округ, 121596, Россия"}, {"id": 328, "lattitude": 55.734541, "longtitude": 37.492445, "address": "22, улица Василисы Кожиной, район Филёвский Парк, Москва, Центральный федеральный округ, 121096, Россия"}, {"id": 329, "lattitude": 55.723175, "longtitude": 37.897709, "address": "Физкультурно-оздоровительный комплекс \"Альбатрос\", 19А, Лухмановская улица, Кожухово, район Косино-Ухтомский, Москва, Центральный федеральный округ, 111625, Россия"}, {"id": 330, "lattitude": 55.771997, "longtitude": 37.77596, "address": "район Измайлово, Москва, Центральный федеральный округ, Россия"}, {"id": 331, "lattitude": 55.691216, "longtitude": 37.581399, "address": "5/1 к1, улица Гримау, Академический район, Москва, Центральный федеральный округ, 117449, Россия"}, {"id": 332, "lattitude": 55.813307, "longtitude": 37.703006, "address": "2, 3-я Гражданская улица, Богородское, Москва, район Богородское, Москва, Центральный федеральный округ, 107258, Россия"}, {"id": 333, "lattitude": 55.855484, "longtitude": 37.585807, "address": "14, Алтуфьевское шоссе, район Отрадное, Москва, Центральный федеральный округ, 127562, Россия"}, {"id": 334, "lattitude": 55.841237, "longtitude": 37.585749, "address": "Институт Физиологии Растений им. К. А. Тимирязева, Ботаническая улица, район Марфино, Москва, Центральный федеральный округ, 127276, Россия"}, {"id": 335, "lattitude": 55.813276, "longtitude": 37.726767, "address": "18 к12, Бойцовая улица, Богородское, Москва, район Богородское, Москва, Центральный федеральный округ, 107150, Россия"}, {"id": 336, "lattitude": 55.749997, "longtitude": 37.862723, "address": "Закладной камень, Юбилейный проспект, 9А микрорайон, Южный Реутов, Реутов, городской округ Реутов, Московская область, Центральный федеральный округ, 143969, Россия"}, {"id": 337, "lattitude": 55.596123, "longtitude": 37.473074, "address": "Фуд Сити, поселение Сосенское, Москва, Центральный федеральный округ, 108802, Россия"}, {"id": 338, "lattitude": 55.67371, "longtitude": 37.679898, "address": "Коломенская улица, район Нагатинский Затон, Москва, Центральный федеральный округ, 115142, Россия"}, {"id": 339, "lattitude": 55.815798, "longtitude": 37.514533, "address": "10, улица Космонавта Волкова, Войковский район, Москва, Центральный федеральный округ, 127299, Россия"}, {"id": 340, "lattitude": 55.859544, "longtitude": 37.853734, "address": "городской округ Балашиха, Московская область, Центральный федеральный округ, Россия"}, {"id": 341, "lattitude": 55.698018, "longtitude": 37.663009, "address": "проектируемый проезд № 1221, Технопарк Nagatino i-Land, Даниловский район, Москва, Центральный федеральный округ, 115432, Россия"}, {"id": 342, "lattitude": 55.791871, "longtitude": 37.521525, "address": "3018, проезд Берёзовой Рощи, Ходынское поле, Хорошёвский район, Москва, Центральный федеральный округ, 125252, Россия"}, {"id": 343, "lattitude": 55.66547, "longtitude": 37.54776, "address": "Жилой комплекс \"Дирижабль\", 64 к2, Профсоюзная улица, Обручевский район, Москва, Центральный федеральный округ, 117420, Россия"}, {"id": 344, "lattitude": 55.632697, "longtitude": 37.601042, "address": "4, Чертановская улица, Северное Чертаново, район Чертаново Северное, Москва, Центральный федеральный округ, 117208, Россия"}, {"id": 345, "lattitude": 55.625432, "longtitude": 37.778831, "address": "Очистное сооружение Городня, МКАД, 19-й километр, район Братеево, Москва, Центральный федеральный округ, 115408, Россия"}, {"id": 346, "lattitude": 55.586632, "longtitude": 37.843472, "address": "улица Нижняя Слобода, Остров, Ленинский городской округ, Московская область, Центральный федеральный округ, 142714, Россия"}, {"id": 347, "lattitude": 55.833517, "longtitude": 37.826609, "address": "квартал Лосиный, Абрамцево, Балашиха, городской округ Балашиха, Московская область, Центральный федеральный округ, 143912, Россия"}, {"id": 348, "lattitude": 55.794959, "longtitude": 37.867329, "address": "Новое Измайлово, микрорайон 1 Мая, городской округ Балашиха, Московская область, Центральный федеральный округ, 143904, Россия"}, {"id": 349, "lattitude": 55.711168, "longtitude": 37.59614, "address": "Блок «В» – Общественный корпус, 9 с3, 2-й Донской проезд, Донской район, Москва, Центральный федеральный округ, 119071, Россия"}, {"id": 350, "lattitude": 55.586886, "longtitude": 37.839567, "address": "улица Нижняя Слобода, Остров, Ленинский городской округ, Московская область, Центральный федеральный округ, 142714, Россия"}, {"id": 351, "lattitude": 55.882646, "longtitude": 37.405779, "address": "Новокуркинское шоссе, район Куркино, Москва, Центральный федеральный округ, 141407, Россия"}, {"id": 352, "lattitude": 55.604446, "longtitude": 37.446812, "address": "Центральное Хованское кладбище, улица Адмирала Корнилова, поселение Сосенское, Москва, Центральный федеральный округ, 108802, Россия"}, {"id": 353, "lattitude": 55.905851, "longtitude": 37.907265, "address": "улица Луначарского, Загорянский, городской округ Щёлково, Московская область, Центральный федеральный округ, 141180, Россия"}, {"id": 354, "lattitude": 55.802633, "longtitude": 37.484288, "address": "Больница №52, 3, Пехотная улица, район Щукино, Москва, Центральный федеральный округ, 123182, Россия"}, {"id": 355, "lattitude": 55.588332, "longtitude": 37.377123, "address": "27, Радужная улица, Град Московский, Московский, поселение Московский, Москва, Центральный федеральный округ, 142784, Россия"}, {"id": 356, "lattitude": 55.855459, "longtitude": 37.328863, "address": "64, 8-й квартал, Ангелово, городской округ Красногорск, Московская область, Центральный федеральный округ, 143342, Россия"}, {"id": 357, "lattitude": 55.673784, "longtitude": 37.937656, "address": "Железнодорожная улица, Люберцы, городской округ Люберцы, Московская область, Центральный федеральный округ, 140004, Россия"}, {"id": 358, "lattitude": 55.739429, "longtitude": 37.611253, "address": "2 к1, Якиманская набережная, район Якиманка, Москва, Центральный федеральный округ, 119180, Россия"}, {"id": 359, "lattitude": 55.668445, "longtitude": 37.518403, "address": "99, Ленинский проспект, Проспект Вернадского, Москва, район Проспект Вернадского, Москва, Центральный федеральный округ, 119421, Россия"}, {"id": 360, "lattitude": 55.627133, "longtitude": 37.340972, "address": "6, бульвар Андрея Тарковского, ЖК «Рассказово», поселение Внуковское, Москва, Центральный федеральный округ, 108850, Россия"}, {"id": 361, "lattitude": 55.681068, "longtitude": 37.442978, "address": "42 с1, Очаковское шоссе, Очаково, район Очаково-Матвеевское, Москва, Центральный федеральный округ, 119530, Россия"}, {"id": 362, "lattitude": 55.64621, "longtitude": 37.614518, "address": "Школа № 1862. Корпус школьного образования №3, Артековская улица, Нагорный район, Москва, Центральный федеральный округ, 117639, Россия"}, {"id": 363, "lattitude": 55.735153, "longtitude": 37.783771, "address": "Рассветная аллея, Кусково, район Вешняки, Москва, Центральный федеральный округ, 111402, Россия"}, {"id": 364, "lattitude": 55.614819, "longtitude": 37.801853, "address": "5, Алексеевская улица, Дзержинский, городской округ Дзержинский, Московская область, Центральный федеральный округ, 109649, Россия"}, {"id": 365, "lattitude": 55.576146, "longtitude": 37.555455, "address": "Усадьба Знаменское-Садки, МКАД, 36-й километр, район Северное Бутово, Москва, Центральный федеральный округ, 117463, Россия"}, {"id": 366, "lattitude": 55.755561, "longtitude": 37.630273, "address": "Администрация Президента Российской Федерации, 4, Старая площадь, 4, Тверской район, Москва, Центральный федеральный округ, 109074, Россия"}, {"id": 367, "lattitude": 55.594722, "longtitude": 37.700777, "address": "30А, Шипиловский проезд, район Орехово-Борисово Южное, Москва, Центральный федеральный округ, 115582, Россия"}, {"id": 368, "lattitude": 55.573218, "longtitude": 37.789436, "address": "Ленинский городской округ, Московская область, Центральный федеральный округ, Россия"}, {"id": 369, "lattitude": 55.759796, "longtitude": 37.462227, "address": "Гольф-клуб \"Крылатское\", Островная улица, Москва, район Крылатское, Москва, Центральный федеральный округ, 121552, Россия"}, {"id": 370, "lattitude": 55.702442, "longtitude": 37.659026, "address": "2/21, улица Лобанова, Даниловский район, Москва, Центральный федеральный округ, 115432, Россия"}, {"id": 371, "lattitude": 55.869233, "longtitude": 37.59629, "address": "Школа №1411 (СП-761), улица Бестужевых, район Отрадное, Москва, Центральный федеральный округ, 127566, Россия"}, {"id": 372, "lattitude": 55.752679, "longtitude": 37.460954, "address": "945, 50 с1, улица Нижние Мнёвники, Терехово, район Хорошёво-Мнёвники, Москва, Центральный федеральный округ, 123308, Россия"}, {"id": 373, "lattitude": 55.601942, "longtitude": 37.83797, "address": "АвтоФорвард, улица Новая Слобода, Слобода, Ленинский городской округ, Московская область, Центральный федеральный округ, 140091, Россия"}, {"id": 374, "lattitude": 55.72049, "longtitude": 37.738354, "address": "19, Грайвороновская улица, район Текстильщики, Москва, Центральный федеральный округ, 109518, Россия"}, {"id": 375, "lattitude": 55.899228, "longtitude": 37.462763, "address": "4, улица Юннатов, Старые Химки, Химки, городской округ Химки, Московская область, Центральный федеральный округ, 141401, Россия"}, {"id": 376, "lattitude": 55.870846, "longtitude": 37.675724, "address": "Беру выходной, 31, улица Лётчика Бабушкина, Бабушкинский район, Москва, Центральный федеральный округ, 129281, Россия"}, {"id": 377, "lattitude": 55.758017, "longtitude": 37.396227, "address": "Крылатское, Москва, район Крылатское, Москва, Центральный федеральный округ, 121609, Россия"}, {"id": 378, "lattitude": 55.697929, "longtitude": 37.377539, "address": "улица Блеза Паскаля, Инновационный центр «Сколково», Москва, Центральный федеральный округ, 143026, Россия"}, {"id": 379, "lattitude": 55.574619, "longtitude": 37.544019, "address": "Мототрасса, Лыжная трасса Альфа-Битца, район Северное Бутово, Москва, поселение Сосенское, Москва, Центральный федеральный округ, 117463, Россия"}, {"id": 380, "lattitude": 55.858468, "longtitude": 37.545499, "address": "11 к9, Ильменский проезд, район Западное Дегунино, Москва, Центральный федеральный округ, 127238, Россия"}, {"id": 381, "lattitude": 55.845489, "longtitude": 37.329274, "address": "Mini DH спот \"Митино\", Оранжерейная улица, Брусчатый поселок, Красногорск, городской округ Красногорск, Московская область, Центральный федеральный округ, 143405, Россия"}, {"id": 382, "lattitude": 55.725003, "longtitude": 37.676393, "address": "Жилой комплекс «На Мельникова», Южнопортовый район, Москва, Центральный федеральный округ, 115088, Россия"}, {"id": 383, "lattitude": 55.853678, "longtitude": 37.378835, "address": "33, Парковая улица, район Митино, Москва, Центральный федеральный округ, 125430, Россия"}, {"id": 384, "lattitude": 55.652964, "longtitude": 37.798184, "address": "улица Капотня, район Капотня, Москва, Центральный федеральный округ, 109429, Россия"}, {"id": 385, "lattitude": 55.889172, "longtitude": 37.93131, "address": "КП \"Лосиный остров\", Оболдино, городской округ Щёлково, Московская область, Центральный федеральный округ, 141181, Россия"}, {"id": 386, "lattitude": 55.764562, "longtitude": 37.709324, "address": "1/2, 2-я улица Синичкина, район Лефортово, Москва, Центральный федеральный округ, 111020, Россия"}, {"id": 387, "lattitude": 55.780273, "longtitude": 37.691364, "address": "73 с1, Бакунинская улица, Басманный район, Москва, Центральный федеральный округ, 117449, Россия"}, {"id": 388, "lattitude": 55.607284, "longtitude": 37.737938, "address": "Школа №427, 35 к2, Ясеневая улица, район Орехово-Борисово Южное, Москва, Центральный федеральный округ, 115597, Россия"}, {"id": 389, "lattitude": 55.749481, "longtitude": 37.783744, "address": "8/16, Братская улица, район Перово, Москва, Центральный федеральный округ, 111394, Россия"}, {"id": 390, "lattitude": 55.914758, "longtitude": 37.381698, "address": "Машкинское шоссе, район Куркино, Москва, Центральный федеральный округ, 141408, Россия"}, {"id": 391, "lattitude": 55.765068, "longtitude": 37.550121, "address": "Звенигородское шоссе, Пресненский район, Москва, Центральный федеральный округ, 123100, Россия"}, {"id": 392, "lattitude": 55.657196, "longtitude": 37.447483, "address": "47 с8, Озёрная улица, Тропарёво-Никулино, Москва, Центральный федеральный округ, 119361, Россия"}, {"id": 393, "lattitude": 55.590218, "longtitude": 37.833206, "address": "СТ «Фронтовики», Ленинский городской округ, Московская область, Центральный федеральный округ, 142721, Россия"}, {"id": 394, "lattitude": 55.81942, "longtitude": 37.437883, "address": "проектируемый проезд № 5219, район Покровское-Стрешнево, Москва, Центральный федеральный округ, 123424, Россия"}, {"id": 395, "lattitude": 55.705496, "longtitude": 37.531549, "address": "Московский государственный университет им. М. В. Ломоносова, район Хамовники, Москва, Центральный федеральный округ, 119234, Россия"}, {"id": 396, "lattitude": 55.756821, "longtitude": 37.403302, "address": "5 к3, Осенний бульвар, Крылатское, Москва, район Крылатское, Москва, Центральный федеральный округ, 121609, Россия"}, {"id": 397, "lattitude": 55.595012, "longtitude": 37.763468, "address": "Прудовая улица, Ащерино, Развилка, Ленинский городской округ, Московская область, Центральный федеральный округ, 142717, Россия"}, {"id": 398, "lattitude": 55.850857, "longtitude": 37.580109, "address": "10, Нововладыкинский проезд, район Отрадное, Москва, Центральный федеральный округ, 127273, Россия"}, {"id": 399, "lattitude": 55.734226, "longtitude": 37.637099, "address": "21 с3, улица Бахрушина, район Замоскворечье, Москва, Центральный федеральный округ, 115035, Россия"}, {"id": 400, "lattitude": 55.897686, "longtitude": 37.85454, "address": "Королёв, городской округ Мытищи, Московская область, Центральный федеральный округ, 141076, Россия"}, {"id": 401, "lattitude": 55.900354, "longtitude": 37.585721, "address": "93, Алтуфьевское шоссе (дублёр), район Лианозово, Москва, Центральный федеральный округ, 127349, Россия"}, {"id": 402, "lattitude": 55.624375, "longtitude": 37.62067, "address": "125Ж с3, Варшавское шоссе (дублёр), район Чертаново Северное, Москва, Центральный федеральный округ, 117587, Россия"}, {"id": 403, "lattitude": 55.637986, "longtitude": 37.415793, "address": "Центральная улица, район Солнцево, Румянцево, поселение Московский, Москва, Центральный федеральный округ, 125430, Россия"}, {"id": 404, "lattitude": 55.697366, "longtitude": 37.461894, "address": "3 с11, Очаковское шоссе, район Очаково-Матвеевское, Москва, Центральный федеральный округ, 119530, Россия"}, {"id": 405, "lattitude": 55.653115, "longtitude": 37.919025, "address": "ООО «СтройАгроТехника», литА, микрорайон Птицефабрика, Томилино, городской округ Люберцы, Московская область, Центральный федеральный округ, 140070, Россия"}, {"id": 406, "lattitude": 55.647383, "longtitude": 37.322377, "address": "улица Ф. Энгельса, посёлок Литгазеты, ДСК «Мичуринец», поселение Внуковское, Москва, Центральный федеральный округ, 108849, Россия"}, {"id": 407, "lattitude": 55.808158, "longtitude": 37.826803, "address": "Школа №1748 \"Вертикаль\". Корпус №2 \"Улыбка\", 47, 16-я Парковая улица, район Северное Измайлово, Москва, Центральный федеральный округ, 105523, Россия"}, {"id": 408, "lattitude": 55.641253, "longtitude": 37.721338, "address": "Батайский проезд, район Марьино, Москва, Центральный федеральный округ, 109651, Россия"}, {"id": 409, "lattitude": 55.66212, "longtitude": 37.62494, "address": "1/1, Каширский проезд, район Нагатино-Садовники, Москва, Центральный федеральный округ, 115201, Россия"}, {"id": 410, "lattitude": 55.599335, "longtitude": 37.492881, "address": "Коммунарское шоссе, Газопровод, поселение Сосенское, Москва, Центральный федеральный округ, 142704, Россия"}, {"id": 411, "lattitude": 55.601651, "longtitude": 37.595305, "address": "42 к3, Кировоградская улица, район Чертаново Южное, Москва, Центральный федеральный округ, 117534, Россия"}, {"id": 412, "lattitude": 55.813436, "longtitude": 37.570266, "address": "11, улица Костякова, Тимирязевский район, Москва, Центральный федеральный округ, 127422, Россия"}, {"id": 413, "lattitude": 55.579451, "longtitude": 37.678505, "address": "Детский сад №961, Загорьевская улица, район Бирюлёво Восточное, Москва, Центральный федеральный округ, 115598, Россия"}, {"id": 414, "lattitude": 55.87524, "longtitude": 37.783865, "address": "Лосиная биостанция, Кропоткинский проезд, Дружба, Мытищи, городской округ Мытищи, Московская область, Центральный федеральный округ, 140152, Россия"}, {"id": 415, "lattitude": 55.649454, "longtitude": 37.588789, "address": "9 к2, улица Каховка, район Зюзино, Москва, Центральный федеральный округ, 117303, Россия"}, {"id": 416, "lattitude": 55.882616, "longtitude": 37.435799, "address": "Куркинское шоссе, Бутаково, Старые Химки, Химки, городской округ Химки, Московская область, Центральный федеральный округ, 141407, Россия"}, {"id": 417, "lattitude": 55.603174, "longtitude": 37.499978, "address": "район Ясенево, Москва, Центральный федеральный округ, 142704, Россия"}, {"id": 418, "lattitude": 55.743983, "longtitude": 37.71848, "address": "30А, Авиамоторная улица, Дангауэровка, район Лефортово, Москва, Центральный федеральный округ, 101024, Россия"}, {"id": 419, "lattitude": 55.566359, "longtitude": 37.71522, "address": "посёлок Совхоза имени Ленина, Ленинский городской округ, Московская область, Центральный федеральный округ, 142715, Россия"}, {"id": 420, "lattitude": 55.902304, "longtitude": 37.556953, "address": "Зональная улица, район Лианозово, Москва, Центральный федеральный округ, 127253, Россия"}, {"id": 421, "lattitude": 55.84811, "longtitude": 37.570488, "address": "54 к2, Дмитровское шоссе (дублёр), Тимирязевский район, Москва, Центральный федеральный округ, 127238, Россия"}, {"id": 422, "lattitude": 55.642022, "longtitude": 37.798584, "address": "Стадион, улица Капотня, 2-й квартал Капотня, район Капотня, Москва, Центральный федеральный округ, 109429, Россия"}, {"id": 423, "lattitude": 55.582456, "longtitude": 37.555238, "address": "Усадьба Знаменское-Садки, МКАД, 36-й километр, район Северное Бутово, Москва, Центральный федеральный округ, 117463, Россия"}, {"id": 424, "lattitude": 55.600555, "longtitude": 37.830561, "address": "Ленинский городской округ, Московская область, Центральный федеральный округ, 140091, Россия"}, {"id": 425, "lattitude": 55.798592, "longtitude": 37.825761, "address": "Санаторный детский дом № 48, 16-я Парковая улица, район Восточное Измайлово, Москва, Центральный федеральный округ, 105203, Россия"}, {"id": 426, "lattitude": 55.6188, "longtitude": 37.812518, "address": "улица Трудкоммуны, Дзержинский, городской округ Дзержинский, Московская область, Центральный федеральный округ, 140091, Россия"}, {"id": 427, "lattitude": 55.707112, "longtitude": 37.899022, "address": "48, улица 8 Марта, район Косино-Ухтомский, Люберцы, Москва, Центральный федеральный округ, 140006, Россия"}, {"id": 428, "lattitude": 55.706744, "longtitude": 37.39277, "address": "Беловежская улица, МКАД, 53-й километр, Можайский, Можайский район, Москва, Центральный федеральный округ, 121353, Россия"}, {"id": 429, "lattitude": 55.631142, "longtitude": 37.334264, "address": "30, Рассказовка, поселение Внуковское, Москва, Центральный федеральный округ, 108849, Россия"}, {"id": 430, "lattitude": 55.731768, "longtitude": 37.830105, "address": "Больница №15 им. О.М. Филатова, 23, Вешняковская улица, район Вешняки, Москва, Центральный федеральный округ, 111538, Россия"}, {"id": 431, "lattitude": 55.676182, "longtitude": 37.835808, "address": "МКАД, 12-й километр, район Люблино, Москва, Центральный федеральный округ, 109380, Россия"}, {"id": 432, "lattitude": 55.750734, "longtitude": 37.457859, "address": "проектируемый проезд № 1071, Терехово, район Хорошёво-Мнёвники, Москва, Центральный федеральный округ, 123423, Россия"}, {"id": 433, "lattitude": 55.901509, "longtitude": 37.419086, "address": "Новые Химки, Химки, городской округ Химки, Московская область, Центральный федеральный округ, 141410, Россия"}, {"id": 434, "lattitude": 55.810641, "longtitude": 37.592606, "address": "3 с4, улица Добролюбова, Бутырский район, Москва, Центральный федеральный округ, 127474, Россия"}, {"id": 435, "lattitude": 55.590698, "longtitude": 37.881632, "address": "Насосная станция, Лесная улица, микрорайон 4А, Лыткарино, городской округ Лыткарино, Московская область, Центральный федеральный округ, 140082, Россия"}, {"id": 436, "lattitude": 55.751343, "longtitude": 37.475682, "address": "Московское УВД на воздушном и водном транспорте, Филёвская набережная, район Филёвский Парк, Москва, Центральный федеральный округ, 121433, Россия"}, {"id": 437, "lattitude": 55.605416, "longtitude": 37.706533, "address": "59 к2, Шипиловский проезд, район Орехово-Борисово Южное, Москва, Центральный федеральный округ, 115191, Россия"}, {"id": 438, "lattitude": 55.78047, "longtitude": 37.626772, "address": "Медресе при Московской Соборной мечети, 7 с2, Выползов переулок, Мещанский район, Москва, Центральный федеральный округ, 129090, Россия"}, {"id": 439, "lattitude": 55.628514, "longtitude": 37.718564, "address": "9 к3, Борисовский проезд, район Орехово-Борисово Северное, Москва, Центральный федеральный округ, 115563, Россия"}, {"id": 440, "lattitude": 55.779926, "longtitude": 37.941366, "address": "Салтыковка, Балашиха, городской округ Балашиха, Московская область, Центральный федеральный округ, 143930, Россия"}, {"id": 441, "lattitude": 55.692135, "longtitude": 37.412695, "address": "МКАД (дублёр), район Очаково-Матвеевское, Москва, Центральный федеральный округ, 143085, Россия"}, {"id": 442, "lattitude": 55.820725, "longtitude": 37.67452, "address": "Федеральный детский эколого-биологический центр, Ростокинский проезд, Москва, район Сокольники, Москва, Центральный федеральный округ, 107014, Россия"}, {"id": 443, "lattitude": 55.611573, "longtitude": 37.878307, "address": "Федеральный центр двойных технологий «Союз», Дзержинский, городской округ Дзержинский, Московская область, Центральный федеральный округ, Россия"}, {"id": 444, "lattitude": 55.788925, "longtitude": 37.884499, "address": "9, шоссе Энтузиастов, Новое Измайлово, Балашиха, городской округ Балашиха, Московская область, Центральный федеральный округ, 143912, Россия"}, {"id": 445, "lattitude": 55.688067, "longtitude": 37.426882, "address": "36 к4, Рябиновая улица, район Очаково-Матвеевское, Москва, Центральный федеральный округ, 121471, Россия"}, {"id": 446, "lattitude": 55.731153, "longtitude": 37.884804, "address": "Дятловый проспект, городской округ Балашиха, Московская область, Центральный федеральный округ, 111675, Россия"}, {"id": 447, "lattitude": 55.672298, "longtitude": 37.362981, "address": "46Н-13923, Немчиново, Одинцовский городской округ, Московская область, Центральный федеральный округ, 143026, Россия"}, {"id": 448, "lattitude": 55.897821, "longtitude": 37.52424, "address": "23, Вагоноремонтная улица, Дмитровский, Москва, Дмитровский район, Москва, Центральный федеральный округ, 127644, Россия"}, {"id": 449, "lattitude": 55.703648, "longtitude": 37.682126, "address": "ГБОУ Школа № 2129 ШО \"Начальная школа\", улица Трофимова, Южнопортовый район, Москва, Центральный федеральный округ, 115432, Россия"}, {"id": 450, "lattitude": 55.881975, "longtitude": 37.394805, "address": "17 к6, Куркинское шоссе, район Куркино, Москва, Центральный федеральный округ, 125466, Россия"}, {"id": 451, "lattitude": 55.676062, "longtitude": 37.469312, "address": "Торговый дом Люкс, 4 к1, проезд Олимпийской Деревни, Олимпийская деревня, Тропарёво-Никулино, Москва, Центральный федеральный округ, 119602, Россия"}, {"id": 452, "lattitude": 55.812235, "longtitude": 37.418873, "address": "Строгино, аллея Дорога Жизни, район Строгино, Москва, Центральный федеральный округ, 123181, Россия"}, {"id": 453, "lattitude": 55.909705, "longtitude": 37.8354, "address": "Лицей № 5, Пионерская улица, Новые Подлипки, Королёв, городской округ Королёв, Московская область, Центральный федеральный округ, 141074, Россия"}, {"id": 454, "lattitude": 55.663724, "longtitude": 37.888778, "address": "14, Котельнический проезд, 22-й км Новорязанского шоссе, Люберцы, городской округ Люберцы, Московская область, Центральный федеральный округ, 140005, Россия"}, {"id": 455, "lattitude": 55.632282, "longtitude": 37.477662, "address": "2, улица Академика Варги, район Тёплый Стан, Москва, Центральный федеральный округ, 117133, Россия"}, {"id": 456, "lattitude": 55.739613, "longtitude": 37.664364, "address": "26 с1, Таганская улица, Таганский район, Москва, Центральный федеральный округ, 109147, Россия"}, {"id": 457, "lattitude": 55.601001, "longtitude": 37.384928, "address": "улица Филатов Луг, поселение Московский, Москва, Центральный федеральный округ, 108811, Россия"}, {"id": 458, "lattitude": 55.606467, "longtitude": 37.816137, "address": "улица Старая Слобода, Слобода, Ленинский городской округ, Московская область, Центральный федеральный округ, 109649, Россия"}, {"id": 459, "lattitude": 55.593916, "longtitude": 37.769191, "address": "1-й Берёзовый проезд, СНТ «Берёзка-2», Ащерино, Развилка, Ленинский городской округ, Московская область, Центральный федеральный округ, 142717, Россия"}, {"id": 460, "lattitude": 55.642817, "longtitude": 37.511061, "address": "31 к3, улица Академика Волгина, район Коньково, Москва, Центральный федеральный округ, 117871, Россия"}, {"id": 461, "lattitude": 55.568321, "longtitude": 37.425845, "address": "Макарово, поселение Сосенское, Москва, Центральный федеральный округ, 108814, Россия"}, {"id": 462, "lattitude": 55.752582, "longtitude": 37.659609, "address": "Московский научно-практический центр медицинской реабилитации, восстановительной и спортивной медицины, Малый Полуярославский переулок, Таганский район, Москва, Центральный федеральный округ, 105120, Россия"}, {"id": 463, "lattitude": 55.818458, "longtitude": 37.471163, "address": "Усадьба Покровское-Стрешнево, Полесский проезд, район Покровское-Стрешнево, Москва, Центральный федеральный округ, 123367, Россия"}, {"id": 464, "lattitude": 55.866419, "longtitude": 37.908545, "address": "городской округ Балашиха, Московская область, Центральный федеральный округ, Россия"}, {"id": 465, "lattitude": 55.855826, "longtitude": 37.44606, "address": "3 с1, улица Фомичёвой, район Северное Тушино, Москва, Центральный федеральный округ, 125481, Россия"}, {"id": 466, "lattitude": 55.837473, "longtitude": 37.937152, "address": "51Б, улица Лукино, Лукино, Балашиха, городской округ Балашиха, Московская область, Центральный федеральный округ, 143909, Россия"}, {"id": 467, "lattitude": 55.852438, "longtitude": 37.552976, "address": "проектируемый проезд № 1046, район Западное Дегунино, Москва, Центральный федеральный округ, 125635, Россия"}, {"id": 468, "lattitude": 55.686646, "longtitude": 37.835372, "address": "Новорязанское шоссе, район Выхино-Жулебино, Москва, Центральный федеральный округ, 109153, Россия"}, {"id": 469, "lattitude": 55.719029, "longtitude": 37.557727, "address": "Павильон 1А, Новолужнецкий проезд, Лужники, район Хамовники, Москва, Центральный федеральный округ, 119270, Россия"}, {"id": 470, "lattitude": 55.772813, "longtitude": 37.827671, "address": "96 к2, шоссе Энтузиастов (дублёр), Южное Измайлово, район Ивановское, Москва, Центральный федеральный округ, 111531, Россия"}, {"id": 471, "lattitude": 55.851689, "longtitude": 37.799257, "address": "городской округ Балашиха, Московская область, Центральный федеральный округ, Россия"}, {"id": 472, "lattitude": 55.712911, "longtitude": 37.408675, "address": "8 к1, Витебская улица, Сетунь, Можайский, Можайский район, Москва, Центральный федеральный округ, 121353, Россия"}, {"id": 473, "lattitude": 55.876841, "longtitude": 37.837003, "address": "Заповедная зона Национального парка \"Лосиный остров\", Центральная улица, Торфопредприятие, Королёв, городской округ Королёв, Московская область, Центральный федеральный округ, 141076, Россия"}, {"id": 474, "lattitude": 55.657532, "longtitude": 37.623695, "address": "8А с2, Каширский проезд, район Нагатино-Садовники, Москва, Центральный федеральный округ, 115201, Россия"}, {"id": 475, "lattitude": 55.59647, "longtitude": 37.39664, "address": "улица Филатов Луг, поселение Московский, Москва, Центральный федеральный округ, 108811, Россия"}, {"id": 476, "lattitude": 55.641654, "longtitude": 37.591373, "address": "15, Балаклавский проспект, Северное Чертаново, микрорайон Северное Чертаново, район Чертаново Северное, Москва, Центральный федеральный округ, 117303, Россия"}, {"id": 477, "lattitude": 55.71906, "longtitude": 37.604894, "address": "Дом Научно-технического творчества молодёжи, 37, Донская улица, Донской район, Москва, Центральный федеральный округ, 115419, Россия"}, {"id": 478, "lattitude": 55.608389, "longtitude": 37.871871, "address": "Дзержинский - Лыткарино, Дзержинский, городской округ Дзержинский, Московская область, Центральный федеральный округ, 140090, Россия"}, {"id": 479, "lattitude": 55.863311, "longtitude": 37.844606, "address": "городской округ Балашиха, Московская область, Центральный федеральный округ, Россия"}, {"id": 480, "lattitude": 55.72426, "longtitude": 37.434839, "address": "6 к3, улица Багрицкого, Можайский, Можайский район, Москва, Центральный федеральный округ, 121374, Россия"}, {"id": 481, "lattitude": 55.667774, "longtitude": 37.497694, "address": "93 к2, проспект Вернадского, Проспект Вернадского, Москва, район Проспект Вернадского, Москва, Центральный федеральный округ, 119526, Россия"}, {"id": 482, "lattitude": 55.908581, "longtitude": 37.59021, "address": "район Бибирево, Москва, Центральный федеральный округ, 127349, Россия"}, {"id": 483, "lattitude": 55.686083, "longtitude": 37.705609, "address": "Автомобильная тренировочная площадка., район Нагатинский Затон, Москва, Центральный федеральный округ, 115142, Россия"}, {"id": 484, "lattitude": 55.739231, "longtitude": 37.870612, "address": "Детский сад №1697, Салтыковская улица, район Новокосино, Москва, Центральный федеральный округ, 111672, Россия"}, {"id": 485, "lattitude": 55.629431, "longtitude": 37.375644, "address": "Горнолыжный комплекс «Ново-Переделкино», проектируемый проезд № 6662, Ново-Переделкино, Москва, поселение Московский, Москва, Центральный федеральный округ, 119297, Россия"}, {"id": 486, "lattitude": 55.606233, "longtitude": 37.552408, "address": "Школа № 1103. Корпус школьного образования №7, Новоясеневский проспект, район Ясенево, Москва, Центральный федеральный округ, 117593, Россия"}, {"id": 487, "lattitude": 55.896733, "longtitude": 37.513726, "address": "9 с54, Ижорская улица, Дмитровский, Москва, Дмитровский район, Москва, Центральный федеральный округ, 127644, Россия"}, {"id": 488, "lattitude": 55.798493, "longtitude": 37.608435, "address": "14, 1-й Стрелецкий проезд, район Марьина Роща, Москва, Центральный федеральный округ, 127018, Россия"}, {"id": 489, "lattitude": 55.645361, "longtitude": 37.785157, "address": "улица Капотня, район Капотня, Москва, Центральный федеральный округ, 109429, Россия"}, {"id": 490, "lattitude": 55.758524, "longtitude": 37.496605, "address": "Филёвский бульвар, Филёвская пойма, район Филёвский Парк, Москва, Центральный федеральный округ, 121601, Россия"}, {"id": 491, "lattitude": 55.640086, "longtitude": 37.72636, "address": "Марьино, Батайский проезд, район Марьино, Москва, Центральный федеральный округ, 109651, Россия"}, {"id": 492, "lattitude": 55.578539, "longtitude": 37.686233, "address": "район Бирюлёво Восточное, Москва, Центральный федеральный округ, 115598, Россия"}, {"id": 493, "lattitude": 55.88896, "longtitude": 37.799415, "address": "Леонидовка, Мытищи, городской округ Мытищи, Московская область, Центральный федеральный округ, 141007, Россия"}, {"id": 494, "lattitude": 55.913743, "longtitude": 37.938088, "address": "улица Ватутина, Валентиновка, Загорянский, городской округ Щёлково, Московская область, Центральный федеральный округ, 141181, Россия"}, {"id": 495, "lattitude": 55.851168, "longtitude": 37.773901, "address": "59-я просека, район Метрогородок, Москва, Центральный федеральный округ, 107241, Россия"}, {"id": 496, "lattitude": 55.66753, "longtitude": 37.689264, "address": "Курьяновская станция аэрации, 15, 1-й Курьяновский проезд, район Печатники, Москва, Центральный федеральный округ, 109235, Россия"}, {"id": 497, "lattitude": 55.830876, "longtitude": 37.855042, "address": "микрорайон 1 Мая, Балашиха, городской округ Балашиха, Московская область, Центральный федеральный округ, 143911, Россия"}, {"id": 498, "lattitude": 55.780816, "longtitude": 37.376464, "address": "район Строгино, Москва, Центральный федеральный округ, 121500, Россия"}, {"id": 499, "lattitude": 55.659748, "longtitude": 37.832627, "address": "район Люблино, Москва, Центральный федеральный округ, 109429, Россия"}, {"id": 500, "lattitude": 55.625687, "longtitude": 37.713001, "address": "1 к2, Борисовский проезд, район Орехово-Борисово Северное, Москва, Центральный федеральный округ, 115563, Россия"}, {"id": 501, "lattitude": 55.684626, "longtitude": 37.686249, "address": "37/11, Судостроительная улица, Нагатино, район Нагатинский Затон, Москва, Центральный федеральный округ, 115407, Россия"}, {"id": 502, "lattitude": 55.724146, "longtitude": 37.341575, "address": "проспект Революции, КП «имени Малевича», Немчиновка, Одинцовский городской округ, Московская область, Центральный федеральный округ, 143025, Россия"}, {"id": 503, "lattitude": 55.725257, "longtitude": 37.911379, "address": "Народный гараж, 37, Лухмановская улица, Кожухово, район Косино-Ухтомский, Москва, Центральный федеральный округ, 111625, Россия"}, {"id": 504, "lattitude": 55.744841, "longtitude": 37.89243, "address": "Николо-Архангельский крематорий, Центральная улица, Серебрянка, Салтыковка, Балашиха, городской округ Балашиха, Московская область, Центральный федеральный округ, 141202, Россия"}, {"id": 505, "lattitude": 55.893165, "longtitude": 37.397793, "address": "3, Родионовская улица, район Куркино, Москва, Центральный федеральный округ, 125466, Россия"}, {"id": 506, "lattitude": 55.664524, "longtitude": 37.85918, "address": "23, микрорайон Белая Дача, Котельники, городской округ Котельники, Московская область, Центральный федеральный округ, 140055, Россия"}, {"id": 507, "lattitude": 55.610542, "longtitude": 37.437201, "address": "Филимонковское шоссе, поселение Московский, Москва, Центральный федеральный округ, 108802, Россия"}, {"id": 508, "lattitude": 55.59332, "longtitude": 37.336078, "address": "3-й микрорайон, Московский, поселение Московский, Москва, Центральный федеральный округ, 142784, Россия"}, {"id": 509, "lattitude": 55.587256, "longtitude": 37.333259, "address": "Мешково, поселение Московский, Москва, Центральный федеральный округ, 142782, Россия"}, {"id": 510, "lattitude": 55.909696, "longtitude": 37.601633, "address": "Volvo Car Алтуфьево, вл5 с3, МКАД, 86-й километр, Бибирево, район Бибирево, Москва, Центральный федеральный округ, 141031, Россия"}, {"id": 511, "lattitude": 55.699068, "longtitude": 37.495425, "address": "Диспетчерский пункт п/ст \"Давыдковская\", 7 вл1, Винницкая улица, посёлок Матвеевское, район Раменки, Москва, Центральный федеральный округ, 119192, Россия"}, {"id": 512, "lattitude": 55.8931, "longtitude": 37.622788, "address": "25А, улица Лескова, Бибирево, район Бибирево, Москва, Центральный федеральный округ, 127543, Россия"}, {"id": 513, "lattitude": 55.884952, "longtitude": 37.668714, "address": "ЦТП, 63 с2, проезд Шокальского, район Северное Медведково, Москва, Центральный федеральный округ, 127224, Россия"}, {"id": 514, "lattitude": 55.634431, "longtitude": 37.759008, "address": "27 к1 с2, Братеевская улица, Братеево, район Братеево, Москва, Центральный федеральный округ, 115612, Россия"}, {"id": 515, "lattitude": 55.738148, "longtitude": 37.536293, "address": "район Дорогомилово, Москва, Центральный федеральный округ, 121165, Россия"}, {"id": 516, "lattitude": 55.751326, "longtitude": 37.657794, "address": "Московский научно-практический центр медицинской реабилитации, восстановительной и спортивной медицины, Малый Полуярославский переулок, Таганский район, Москва, Центральный федеральный округ, 105120, Россия"}, {"id": 517, "lattitude": 55.586265, "longtitude": 37.679128, "address": "Дорожка вдоль западной лощины, район Бирюлёво Восточное, Москва, Центральный федеральный округ, 115598, Россия"}, {"id": 518, "lattitude": 55.867706, "longtitude": 37.666847, "address": "10 к1, Ленская улица, Бабушкинский район, Москва, Центральный федеральный округ, 129327, Россия"}, {"id": 519, "lattitude": 55.746517, "longtitude": 37.373026, "address": "МКАД, 58-й километр, район Кунцево, Москва, Центральный федеральный округ, 115580, Россия"}, {"id": 520, "lattitude": 55.771298, "longtitude": 37.597734, "address": "5, Оружейный переулок, Тверской район, Москва, Центральный федеральный округ, 127006, Россия"}, {"id": 521, "lattitude": 55.665808, "longtitude": 37.780546, "address": "49 к2, улица Верхние Поля, район Люблино, Москва, Центральный федеральный округ, 109559, Россия"},